%time,field.position0,field.position1,field.position2,field.position3,field.position4,field.position5,field.position6,field.position7,field.position8,field.position9,field.position10,field.position11,field.position12,field.position13,field.position14,field.position15,field.position16,field.position17
1.49743184343623E+018,68.7669525146,-3.5735836029,-96.9434814453,50,47.2597999573,6.7483010292,45.3229370117,74.7144622803,11.7411689758,38.4085769653,70.2638168335,36.6984367371,4.1316218376,53.9681549072,40.6544723511,9.2485704422,17.3666725159,12.340970993
1.49743184344549E+018,68.7669525146,-3.5735836029,-96.9434814453,50,47.2597999573,6.7483010292,45.3229370117,73.8980331421,11.7411689758,38.4085769653,70.2638168335,36.6984367371,4.1316218376,53.9681549072,40.6544723511,9.2485704422,17.3666725159,12.340970993
1.49743184345488E+018,68.7669525146,-3.5735836029,-96.9434814453,50,47.2597999573,6.7483010292,45.3229370117,73.8980331421,8.7529258728,38.4085769653,69.6403579712,36.6984367371,4.1316218376,53.9681549072,40.6544723511,9.2485704422,17.3666725159,12.340970993
1.49743184346415E+018,68.7669525146,-3.5735836029,-96.9434814453,50,47.2597999573,6.7483010292,45.3229370117,73.0816116333,8.7529258728,38.4085769653,69.6403579712,35.9046859741,4.1316218376,53.9681549072,40.6544723511,9.2485704422,17.3666725159,12.340970993
1.49743184347346E+018,68.7669525146,-3.5735836029,-96.9434814453,50,48.165145874,6.7483010292,45.3229370117,73.0816116333,8.7529258728,41.3114280701,69.6403579712,35.9046859741,4.1316218376,53.9681549072,40.6544723511,9.2485704422,17.3666725159,12.340970993
1.4974318434827E+018,68.7669525146,-3.5735836029,-96.9434814453,50,48.165145874,6.7483010292,45.3229370117,72.2651824951,8.7529258728,41.3114280701,69.6403579712,35.9046859741,5.1948800087,53.9681549072,40.6544723511,9.2485704422,17.3666725159,12.340970993
1.49743184349203E+018,68.7669525146,-4.1328411102,-96.9434814453,50,48.165145874,6.7483010292,45.3229370117,72.2651824951,8.7529258728,41.3114280701,69.6403579712,35.9046859741,5.1948800087,52.5613822937,40.6544723511,9.2485704422,17.3666725159,12.340970993
1.49743184350138E+018,68.7669525146,-4.1328411102,-96.9434814453,50,48.165145874,6.7483010292,45.3229370117,71.4487533569,8.7529258728,41.3114280701,67.9778213501,35.9046859741,5.1948800087,52.5613822937,40.6544723511,9.9742860794,17.3666725159,12.340970993
1.49743184351075E+018,68.7669525146,-5.2513771057,-92.3714904785,50,49.9758453369,6.7483010292,45.3229370117,70.6323242188,8.7529258728,41.3114280701,67.9778213501,35.9046859741,5.1948800087,52.5613822937,40.6544723511,9.9742860794,17.3666725159,12.340970993
1.49743184352005E+018,68.7669525146,-5.8106441498,-90.0854797363,50,49.9758453369,6.7483010292,45.3229370117,70.6323242188,8.7529258728,41.3114280701,67.9778213501,35.9046859741,5.1948800087,52.5613822937,40.6544723511,9.9742860794,17.3666725159,12.340970993
1.49743184352939E+018,68.7669525146,-6.9291782379,-87.7994766235,50,49.9758453369,6.7483010292,45.3229370117,69.8158950806,5.764705658,41.3114280701,67.1465454102,35.9046859741,5.1948800087,52.5613822937,39.828453064,9.9742860794,17.3666725159,12.340970993
1.49743184353864E+018,68.7669525146,-7.488445282,-83.2274856567,50,50.8811798096,5.0230212212,45.3229370117,69.2035675049,5.764705658,41.3114280701,66.3152770996,35.9046859741,7.3213963509,52.5613822937,39.4154472351,9.9742860794,17.3666725159,12.340970993
1.49743184354784E+018,68.7669525146,-8.4671573639,-80.9414825439,50,50.8811798096,5.0230212212,45.3229370117,68.3871459961,5.764705658,42.7628593445,65.4840011597,35.9046859741,7.3213963509,51.1546211243,39.4154472351,9.9742860794,17.3666725159,12.340970993
1.49743184355713E+018,68.7669525146,-9.585691452,-76.3694915771,50,50.8811798096,5.0230212212,45.3229370117,66.7542877197,5.764705658,42.7628593445,64.6527252197,36.6984367371,7.3213963509,51.1546211243,39.0024375916,9.9742860794,17.3666725159,12.340970993
1.49743184356642E+018,68.7669525146,-10.7042255402,-69.5114974976,50,50.8811798096,5.0230212212,45.3229370117,65.9378585815,5.764705658,42.7628593445,63.8214492798,36.6984367371,7.3213963509,50.4512367249,38.5894317627,10.7000017166,17.3666725159,12.340970993
1.49743184357569E+018,68.7669525146,-12.382019043,-65.5109939575,50,50.8811798096,5.0230212212,45.3229370117,64.3050003052,5.764705658,42.7628593445,62.9901771545,36.6984367371,7.3213963509,50.4512367249,38.5894317627,10.7000017166,17.3666725159,12.340970993
1.49743184358499E+018,68.7669525146,-13.5005531311,-60.9389877319,50,50.8811798096,5.0230212212,45.3229370117,62.6721496582,5.764705658,42.7628593445,62.1589012146,36.6984367371,7.3213963509,50.4512367249,38.1764221191,10.7000017166,17.3666725159,12.340970993
1.4974318435944E+018,67.8834762573,-15.1783466339,-56.3669929504,50,50.8811798096,5.0230212212,45.3229370117,61.85572052,8.7529258728,45.6657142639,61.3276405334,36.6984367371,7.3213963509,50.4512367249,37.7634162903,10.7000017166,17.3666725159,11.9464082718
1.49743184360371E+018,67.8834762573,-16.2968826294,-51.7949867249,50,52.4655418396,5.0230212212,45.3229370117,61.0392875671,8.7529258728,45.6657142639,61.3276405334,36.6984367371,7.3213963509,50.4512367249,37.7634162903,10.7000017166,17.3666725159,11.9464082718
1.49743184361303E+018,67.8834762573,-17.8348693848,-49.5089797974,50,52.4655418396,5.0230212212,45.3229370117,59.4064292908,8.7529258728,47.1171455383,61.3276405334,36.6984367371,7.3213963509,50.4512367249,37.7634162903,9.9742860794,17.3666725159,11.9464082718
1.49743184362236E+018,67.8834762573,-18.9533958435,-47.2229919434,50,53.370891571,5.0230212212,45.3229370117,58.5900001526,8.7529258728,47.1171455383,61.3276405334,36.6984367371,7.3213963509,50.4512367249,37.7634162903,9.9742860794,16.601940155,11.9464082718
1.49743184363168E+018,67.8834762573,-19.5126609802,-42.6509857178,50,53.370891571,5.0230212212,45.3229370117,57.7735671997,8.7529258728,48.5685768127,61.3276405334,36.6984367371,8.3846464157,49.2203063965,37.7634162903,9.9742860794,16.601940155,11.9464082718
1.49743184364099E+018,68.7669525146,-20.6311950684,-38.078994751,50,54.2762374878,4.1603779793,45.3229370117,56.9571495056,2.7764663696,48.5685768127,59.6650924683,36.6984367371,8.3846464157,49.2203063965,37.7634162903,9.9742860794,16.601940155,11.9464082718
1.49743184365021E+018,68.7669525146,-21.7497310638,-35.7929878235,50,54.2762374878,4.1603779793,45.3229370117,56.3448257446,2.7764663696,48.5685768127,59.6650924683,36.6984367371,8.3846464157,49.2203063965,37.7634162903,9.9742860794,16.601940155,11.9464082718
1.49743184365942E+018,68.7669525146,-22.8682575226,-31.2209968567,50,54.2762374878,4.1603779793,47.3399887085,55.5283927917,2.7764663696,48.5685768127,58.8338165283,36.6984367371,8.3846464157,48.5169219971,37.7634162903,9.9742860794,16.601940155,11.9464082718
1.49743184366868E+018,68.7669525146,-23.4275245667,-29.5064849854,50,54.2762374878,4.1603779793,47.3399887085,55.5283927917,2.7764663696,48.5685768127,58.8338165283,36.6984367371,8.3846464157,48.5169219971,37.7634162903,9.9742860794,16.601940155,11.9464082718
1.49743184367803E+018,68.7669525146,-24.5460586548,-27.2204971313,50,54.2762374878,4.1603779793,47.3399887085,54.7119636536,2.7764663696,48.5685768127,58.8338165283,36.6984367371,9.4479045868,48.5169219971,37.7634162903,8.5228595734,16.601940155,11.9464082718
1.49743184368732E+018,68.7669525146,-25.1053256989,-24.9344940186,50,56.0869216919,5.885664463,47.3399887085,54.7119636536,2.7764663696,48.5685768127,58.8338165283,36.6984367371,9.4479045868,48.5169219971,37.7634162903,7.7971439362,16.601940155,11.9464082718
1.49743184369659E+018,68.7669525146,-26.0840377808,-24.9344940186,50,56.9922714233,5.885664463,47.3399887085,53.8955345154,2.7764663696,51.4714279175,58.8338165283,37.4921875,9.4479045868,48.5169219971,37.7634162903,7.7971439362,15.0724754333,11.9464082718
1.49743184370583E+018,68.7669525146,-26.6433048248,-22.6484889984,50,56.9922714233,6.7483010292,47.3399887085,53.8955345154,-3.2000160217,51.4714279175,58.8338165283,37.4921875,9.4479045868,48.5169219971,37.7634162903,7.0714278221,15.0724754333,11.9464082718
1.49743184371498E+018,70.5339202881,-27.2025718689,-22.6484889984,50,57.8976173401,7.6109442711,47.3399887085,53.0791053772,-3.2000160217,52.9228591919,58.8338165283,37.4921875,11.5744132996,48.5169219971,37.7634162903,6.3457121849,15.0724754333,11.9464082718
1.4974318437242E+018,70.5339202881,-27.2025718689,-20.3624839783,50,57.8976173401,8.4735870361,47.3399887085,53.0791053772,-3.2000160217,52.9228591919,58.8338165283,37.4921875,11.5744132996,48.5169219971,37.7634162903,6.3457121849,14.498922348,11.9464082718
1.49743184373338E+018,70.5339202881,-27.761838913,-20.3624839783,50,58.8029670715,9.336230278,47.3399887085,53.0791053772,-3.2000160217,52.9228591919,58.8338165283,37.4921875,11.5744132996,48.5169219971,37.7634162903,5.8014278412,14.498922348,11.9464082718
1.49743184374271E+018,70.5339202881,-28.321105957,-20.3624839783,50,58.8029670715,10.1988677979,47.3399887085,53.0791053772,-3.2000160217,52.9228591919,58.8338165283,37.4921875,12.6376714706,48.5169219971,37.7634162903,5.8014278412,14.498922348,11.9464082718
1.49743184375211E+018,70.5339202881,-28.321105957,-20.3624839783,50,59.708316803,10.1988677979,47.3399887085,53.0791053772,-3.2000160217,52.9228591919,58.8338165283,37.4921875,12.6376714706,48.5169219971,37.7634162903,5.8014278412,14.498922348,11.9464082718
1.49743184376151E+018,70.5339202881,-28.8803730011,-20.3624839783,50,59.708316803,11.0615110397,50.0294036865,53.0791053772,-9.1764755249,55.8257141113,58.8338165283,37.4921875,12.6376714706,48.5169219971,37.7634162903,5.8014278412,14.498922348,11.9464082718
1.49743184377078E+018,70.5339202881,-28.8803730011,-20.3624839783,50,60.6136627197,11.0615110397,50.0294036865,53.0791053772,-9.1764755249,55.8257141113,58.8338165283,37.4921875,12.6376714706,48.5169219971,37.7634162903,5.8014278412,14.498922348,11.9464082718
1.4974318437801E+018,72.0800018311,-29.4396419525,-15.7904930115,50,60.6136627197,11.9241542816,50.0294036865,53.0791053772,-11.4176483154,57.2771453857,58.8338165283,38.2859382629,12.6376714706,48.5169219971,37.7634162903,5.8014278412,14.498922348,11.9464082718
1.49743184378939E+018,72.0800018311,-29.9988994598,-15.7904930115,50,60.6136627197,12.7867908478,50.0294036865,51.4462547302,-11.4176483154,57.2771453857,58.8338165283,38.2859382629,14.7641878128,48.5169219971,37.7634162903,5.8014278412,12.9694671631,11.9464082718
1.49743184379859E+018,72.0800018311,-29.9988994598,-15.7904930115,50,60.6136627197,13.6494340897,50.0294036865,51.4462547302,-14.4058914185,57.2771453857,58.8338165283,38.2859382629,14.7641878128,48.5169219971,37.7634162903,5.8014278412,12.9694671631,12.340970993
1.49743184380786E+018,72.0800018311,-30.5581665039,-15.7904930115,50,60.6136627197,13.6494340897,50.0294036865,51.4462547302,-14.4058914185,57.2771453857,58.8338165283,38.2859382629,14.7641878128,48.5169219971,37.7634162903,5.8014278412,12.9694671631,12.340970993
1.49743184381731E+018,72.0800018311,-30.5581665039,-15.7904930115,50,60.6136627197,13.6494340897,52.7188224792,51.4462547302,-14.4058914185,57.2771453857,58.8338165283,38.2859382629,14.7641878128,48.5169219971,37.7634162903,5.8014278412,12.2047348022,12.340970993
1.49743184382664E+018,72.0800018311,-30.5581665039,-15.7904930115,50,60.6136627197,13.6494340897,52.7188224792,51.4462547302,-14.4058914185,57.2771453857,58.8338165283,38.2859382629,14.7641878128,48.5169219971,37.7634162903,5.8014278412,12.2047348022,12.340970993
1.49743184383595E+018,72.0800018311,-30.5581665039,-15.7904930115,50,60.6136627197,13.6494340897,52.7188224792,51.4462547302,-14.4058914185,57.2771453857,58.8338165283,38.2859382629,14.7641878128,48.5169219971,37.7634162903,5.8014278412,11.4400024414,12.340970993
1.49743184384537E+018,72.0800018311,-30.5581665039,-15.7904930115,50,60.6136627197,13.6494340897,52.7188224792,51.4462547302,-14.4058914185,58.7285766602,58.0025405884,39.0796852112,14.7641878128,48.5169219971,37.7634162903,6.3457121849,11.4400024414,12.340970993
1.49743184385469E+018,72.0800018311,-30.5581665039,-13.504488945,50,61.5190124512,13.6494340897,52.7188224792,51.4462547302,-14.4058914185,58.7285766602,58.0025405884,39.0796852112,14.7641878128,48.5169219971,37.3504066467,6.3457121849,11.4400024414,12.340970993
1.49743184386389E+018,72.0800018311,-30.5581665039,-13.504488945,50,61.5190124512,13.6494340897,52.7188224792,51.4462547302,-14.4058914185,58.7285766602,58.0025405884,39.0796852112,15.8274374008,48.5169219971,37.3504066467,6.3457121849,11.4400024414,12.340970993
1.49743184387321E+018,70.5339202881,-30.5581665039,-13.504488945,50,61.5190124512,13.6494340897,52.7188224792,51.4462547302,-14.4058914185,58.7285766602,58.0025405884,39.0796852112,15.8274374008,48.5169219971,37.3504066467,6.3457121849,11.4400024414,12.340970993
1.49743184388246E+018,70.5339202881,-30.5581665039,-13.504488945,50,61.5190124512,13.6494340897,52.7188224792,51.4462547302,-14.4058914185,58.7285766602,58.0025405884,39.0796852112,15.8274374008,48.5169219971,37.3504066467,6.3457121849,11.4400024414,12.340970993
1.49743184389171E+018,69.6504364014,-30.5581665039,-13.504488945,50,61.5190124512,13.6494340897,52.7188224792,51.4462547302,-14.4058914185,58.7285766602,58.0025405884,39.0796852112,15.8274374008,48.5169219971,37.3504066467,6.3457121849,11.4400024414,12.735534668
1.49743184390092E+018,68.7669525146,-30.5581665039,-13.504488945,50,61.5190124512,13.6494340897,52.7188224792,51.4462547302,-14.4058914185,58.7285766602,58.0025405884,39.0796852112,15.8274374008,48.5169219971,37.3504066467,6.3457121849,10.6752700806,12.735534668
1.49743184391015E+018,67.8834762573,-30.5581665039,-13.504488945,50,61.5190124512,11.9241542816,52.7188224792,51.4462547302,-14.4058914185,58.7285766602,56.5478210449,39.0796852112,15.8274374008,48.5169219971,37.3504066467,6.3457121849,10.6752700806,12.735534668
1.49743184391942E+018,67,-30.5581665039,-13.504488945,50,60.6136627197,11.0615110397,52.7188224792,51.4462547302,-14.4058914185,58.7285766602,55.7165489197,39.0796852112,15.8274374008,48.5169219971,37.3504066467,6.3457121849,10.6752700806,12.735534668
1.49743184392869E+018,66.1165161133,-30.5581665039,-13.504488945,50,60.6136627197,10.1988677979,52.7188224792,51.4462547302,-9.1764755249,58.7285766602,55.7165489197,39.0796852112,15.8274374008,47.813533783,37.3504066467,6.3457121849,10.6752700806,12.735534668
1.49743184393792E+018,65.233039856,-30.5581665039,-13.504488945,50,60.6136627197,9.336230278,52.7188224792,51.4462547302,-9.1764755249,58.7285766602,54.8852729797,40.6671905518,15.8274374008,47.813533783,37.3504066467,6.3457121849,10.6752700806,12.735534668
1.49743184394714E+018,64.349571228,-30.5581665039,-13.504488945,50,58.8029670715,8.4735870361,52.7188224792,51.4462547302,-6.1882362366,58.7285766602,54.8852729797,41.4609413147,15.8274374008,47.813533783,36.6276397705,6.3457121849,10.6752700806,12.735534668
1.49743184395642E+018,63.4660949707,-30.5581665039,-13.504488945,50,58.8029670715,8.4735870361,52.7188224792,49.8133964539,-3.2000160217,58.7285766602,54.0539970398,41.4609413147,15.8274374008,47.813533783,36.2146339417,6.3457121849,10.6752700806,12.735534668
1.49743184396569E+018,63.4660949707,-30.5581665039,-13.504488945,50,58.8029670715,8.4735870361,47.3399887085,49.8133964539,-0.2117767334,58.7285766602,54.0539970398,42.2546844482,15.8274374008,47.813533783,35.8016281128,6.3457121849,10.6752700806,12.340970993
1.49743184397494E+018,62.582611084,-30.5581665039,-13.504488945,50,57.8976173401,8.4735870361,47.3399887085,49.8133964539,5.764705658,58.7285766602,54.0539970398,43.0484390259,15.8274374008,47.813533783,35.3886184692,6.3457121849,10.6752700806,12.340970993
1.49743184398423E+018,61.6991348267,-30.5581665039,-13.504488945,50,56.9922714233,8.4735870361,47.3399887085,49.8133964539,8.7529258728,58.7285766602,54.0539970398,43.8421897888,17.6881351471,47.813533783,34.9756088257,6.3457121849,10.6752700806,12.340970993
1.49743184399347E+018,61.6991348267,-30.5581665039,-13.504488945,50,56.9922714233,8.4735870361,45.3229370117,49.8133964539,11.7411689758,58.7285766602,54.0539970398,44.4375,17.6881351471,47.813533783,34.9756088257,5.075712204,11.4400024414,12.340970993
1.4974318440027E+018,60.8156509399,-30.5581665039,-13.504488945,50,56.9922714233,8.4735870361,45.3229370117,49.8133964539,11.7411689758,58.7285766602,54.0539970398,44.4375,17.6881351471,47.813533783,34.5626029968,5.075712204,11.4400024414,12.340970993
1.49743184401199E+018,60.8156509399,-30.5581665039,-15.7904930115,50,56.9922714233,7.6109442711,45.3229370117,49.8133964539,14.7294082642,58.7285766602,54.0539970398,45.2312507629,18.7513942719,47.813533783,34.1495933533,5.075712204,11.4400024414,12.340970993
1.49743184402122E+018,59.9321746826,-29.4396419525,-15.7904930115,50,56.9922714233,7.6109442711,45.3229370117,49.8133964539,14.7294082642,58.7285766602,54.0539970398,45.2312507629,18.7513942719,47.813533783,34.1495933533,5.075712204,11.4400024414,12.340970993
1.49743184403046E+018,59.0486907959,-29.4396419525,-15.7904930115,50,56.9922714233,7.6109442711,45.3229370117,49.8133964539,17.7176399231,58.7285766602,53.2227249146,46.0249977112,18.7513942719,47.813533783,33.7365875244,5.075712204,11.4400024414,12.340970993
1.49743184403975E+018,58.165222168,-28.8803730011,-15.7904930115,50,55.1815872192,7.6109442711,45.3229370117,49.8133964539,17.7176399231,58.7285766602,53.2227249146,46.0249977112,18.7513942719,47.813533783,33.7365875244,5.075712204,11.4400024414,12.340970993
1.49743184404904E+018,57.2817459106,-28.8803730011,-15.7904930115,50,55.1815872192,7.6109442711,45.3229370117,49.8133964539,20.7058811188,58.7285766602,53.2227249146,46.0249977112,18.7513942719,47.813533783,33.7365875244,5.075712204,11.4400024414,12.340970993
1.49743184405836E+018,56.6191329956,-28.321105957,-15.7904930115,50,55.1815872192,8.4735870361,45.3229370117,49.8133964539,20.7058811188,58.7285766602,53.2227249146,46.0249977112,18.7513942719,47.813533783,33.7365875244,5.075712204,11.4400024414,12.340970993
1.49743184406768E+018,55.7356491089,-28.321105957,-11.2184839249,50,54.2762374878,8.4735870361,42.633518219,49.8133964539,20.7058811188,58.7285766602,53.2227249146,46.0249977112,18.7513942719,47.813533783,33.7365875244,5.075712204,11.4400024414,12.340970993
1.497431844077E+018,55.7356491089,-27.761838913,-11.2184839249,50,54.2762374878,8.4735870361,42.633518219,48.996963501,26.682352066,55.8257141113,53.2227249146,46.0249977112,18.7513942719,47.813533783,33.7365875244,5.075712204,12.2047348022,12.340970993
1.49743184408628E+018,54.8521728516,-27.761838913,-11.2184839249,50,53.370891571,8.4735870361,42.633518219,48.996963501,26.682352066,55.8257141113,53.2227249146,46.0249977112,18.7513942719,47.813533783,33.7365875244,5.075712204,12.2047348022,12.340970993
1.49743184409557E+018,54.8521728516,-27.761838913,-8.9324970245,50,53.370891571,8.4735870361,42.633518219,48.996963501,29.670583725,55.8257141113,53.2227249146,46.8187484741,18.7513942719,47.813533783,33.7365875244,5.075712204,12.2047348022,12.340970993
1.49743184410485E+018,53.9686889648,-27.761838913,-8.9324970245,50,52.4655418396,8.4735870361,42.633518219,48.996963501,29.670583725,54.374294281,53.2227249146,46.8187484741,18.7513942719,48.5169219971,33.7365875244,3.6242859364,12.2047348022,12.340970993
1.4974318441141E+018,52.2017440796,-27.761838913,-6.6464924812,50,51.7865257263,8.4735870361,42.633518219,48.996963501,32.6588134766,52.9228591919,53.2227249146,46.8187484741,18.7513942719,48.5169219971,33.7365875244,2.8985700607,13.7342014313,12.340970993
1.49743184412341E+018,50.4347839355,-26.0840377808,-6.6464924812,50,50.8811798096,8.4735870361,42.633518219,47.3641052246,35.6470565796,51.4714279175,53.2227249146,46.8187484741,18.7513942719,48.5169219971,33.7365875244,2.8985700607,13.7342014313,12.340970993
1.49743184413259E+018,48.6678314209,-25.6645927429,-4.3604879379,50,49.9758453369,8.4735870361,42.633518219,45.7312545776,32.6588134766,48.5685768127,53.2227249146,46.8187484741,18.7513942719,48.5169219971,34.9756088257,2.1728596687,14.498922348,12.340970993
1.4974318441418E+018,46.9008712769,-24.5460586548,-2.0745007992,50,49.0704956055,8.4735870361,42.633518219,45.7312545776,32.6588134766,47.1171455383,53.2227249146,46.8187484741,16.6248855591,48.5169219971,35.8016281128,1.4471439123,14.498922348,12.340970993
1.49743184415106E+018,44.2504348755,-22.8682575226,0.2115036845,50,49.0704956055,8.4735870361,42.633518219,44.9148254395,32.6588134766,44.2142944336,54.8852729797,46.8187484741,15.8274374008,48.5169219971,35.8016281128,0.7214280963,15.0724754333,12.340970993
1.4974318441603E+018,42.7043533325,-22.3089981079,2.497508049,50,48.165145874,8.4735870361,42.633518219,45.7312545776,32.6588134766,42.7628593445,55.7165489197,46.8187484741,15.8274374008,49.9236946106,35.8016281128,-0.0042877458,15.0724754333,12.340970993
1.49743184416956E+018,42.7043533325,-21.7497310638,4.7835125923,50,48.165145874,8.4735870361,42.633518219,45.7312545776,32.6588134766,41.3114280701,55.7165489197,46.0249977112,15.8274374008,50.4512367249,35.8016281128,-0.0042877458,15.0724754333,12.340970993
1.49743184417888E+018,41.8208694458,-21.7497310638,6.4980072975,50,48.165145874,8.4735870361,42.633518219,45.7312545776,32.6588134766,41.3114280701,56.5478210449,46.0249977112,15.8274374008,50.4512367249,35.8016281128,-0.0042877458,15.0724754333,12.340970993
1.49743184418823E+018,41.8208694458,-21.1904640198,6.4980072975,50,48.165145874,10.1988677979,42.633518219,45.7312545776,32.6588134766,42.7628593445,56.5478210449,46.0249977112,15.8274374008,51.1546211243,35.8016281128,-0.0042877458,15.0724754333,11.9464082718
1.49743184419752E+018,41.8208694458,-21.1904640198,8.7840118408,50,48.165145874,10.1988677979,42.633518219,45.7312545776,32.6588134766,42.7628593445,57.1712684631,46.0249977112,15.8274374008,51.1546211243,34.9756088257,-0.0042877458,15.0724754333,11.9464082718
1.49743184420687E+018,41.8208694458,-20.6311950684,8.7840118408,50,48.165145874,11.0615110397,42.633518219,47.3641052246,32.6588134766,42.7628593445,57.1712684631,46.0249977112,15.8274374008,51.8579978943,34.5626029968,2.1728596687,15.0724754333,11.9464082718
1.49743184421615E+018,41.8208694458,-20.0719299316,8.7840118408,50,48.165145874,11.9241542816,42.633518219,47.3641052246,32.6588134766,42.7628593445,58.0025405884,47.6124992371,15.8274374008,51.8579978943,34.1495933533,3.6242859364,15.0724754333,11.9464082718
1.49743184422536E+018,41.8208694458,-19.5126609802,8.7840118408,50,48.165145874,12.7867908478,42.633518219,48.1805343628,32.6588134766,42.7628593445,58.0025405884,48.40625,16.6248855591,52.5613822937,33.3235778809,5.075712204,16.601940155,11.9464082718
1.49743184423461E+018,43.5878295898,-18.9533958435,8.7840118408,50,49.9758453369,13.6494340897,42.633518219,48.1805343628,32.6588134766,42.7628593445,58.0025405884,48.40625,16.6248855591,53.2647705078,32.4975624084,7.0714278221,16.601940155,11.9464082718
1.49743184424391E+018,44.2504348755,-18.9533958435,8.7840118408,50,49.9758453369,13.6494340897,42.633518219,48.996963501,26.682352066,42.7628593445,58.0025405884,49.1999969482,16.6248855591,53.2647705078,32.0845527649,8.5228595734,16.601940155,11.9464082718
1.49743184425314E+018,44.2504348755,-18.3941268921,8.7840118408,50,49.9758453369,14.5120773315,42.633518219,48.996963501,26.682352066,42.7628593445,58.0025405884,49.1999969482,16.6248855591,53.9681549072,31.2585372925,10.7000017166,16.601940155,11.9464082718
1.49743184426234E+018,45.1339187622,-17.8348693848,8.7840118408,50,50.8811798096,15.3747205734,42.633518219,48.996963501,26.682352066,45.6657142639,58.0025405884,49.9937477112,16.6248855591,53.9681549072,30.8455295563,12.1514282227,16.601940155,11.9464082718
1.49743184427155E+018,46.0173873901,-17.2756004333,8.7840118408,50,50.8811798096,16.2373580933,42.633518219,48.996963501,26.682352066,45.6657142639,59.6650924683,50.7875022888,16.6248855591,53.9681549072,30.1227645874,13.6028594971,16.601940155,11.9464082718
1.49743184428082E+018,46.9008712769,-17.2756004333,8.7840118408,50,50.8811798096,16.8843421936,42.633518219,48.996963501,26.682352066,47.1171455383,59.6650924683,49.9937477112,16.6248855591,53.9681549072,29.296749115,14.3285703659,16.601940155,11.5518455505
1.49743184429016E+018,48.6678314209,-16.8561477661,8.7840118408,50,50.8811798096,17.7469806671,42.633518219,50.629825592,26.682352066,47.1171455383,60.4963645935,49.9937477112,16.6248855591,53.9681549072,28.4707317352,15.0542860031,16.601940155,11.5518455505
1.49743184429948E+018,49.5513076782,-16.8561477661,8.7840118408,50,50.8811798096,18.6096229553,42.633518219,50.629825592,20.7058811188,47.1171455383,60.4963645935,49.1999969482,16.6248855591,53.9681549072,28.0577220917,15.7800016403,16.601940155,11.5518455505
1.49743184430878E+018,50.4347839355,-16.2968826294,8.7840118408,50,52.4655418396,19.4722652435,42.633518219,51.4462547302,17.7176399231,47.1171455383,60.4963645935,49.1999969482,18.7513942719,53.9681549072,27.6447162628,16.5057182312,16.601940155,11.5518455505
1.49743184431813E+018,51.3182601929,-16.2968826294,8.7840118408,50,52.4655418396,19.4722652435,42.633518219,51.4462547302,17.7176399231,47.1171455383,60.4963645935,49.1999969482,18.7513942719,54.6715431213,26.8186988831,17.7757167816,17.3666725159,11.5518455505
1.49743184432741E+018,53.0852203369,-16.2968826294,13.3560037613,50,52.4655418396,20.3349094391,42.633518219,51.4462547302,17.7176399231,50.0200080872,60.4963645935,49.1999969482,19.8146514893,54.6715431213,25.5796756744,18.5014286041,17.3666725159,11.5518455505
1.49743184433661E+018,53.9686889648,-16.2968826294,13.3560037613,50,52.4655418396,20.3349094391,42.633518219,51.4462547302,17.7176399231,50.0200080872,60.4963645935,49.1999969482,20.877910614,54.6715431213,24.753660202,19.9528598785,17.3666725159,10.7627191544
1.49743184434589E+018,55.7356491089,-16.2968826294,13.3560037613,50,52.4655418396,20.3349094391,42.633518219,51.4462547302,17.7176399231,51.4714279175,60.4963645935,49.1999969482,21.941160202,54.6715431213,23.2048778534,21.4042854309,17.3666725159,10.7627191544
1.49743184435528E+018,56.6191329956,-17.2756004333,13.3560037613,50,52.4655418396,20.3349094391,42.633518219,51.4462547302,17.7176399231,52.9228591919,60.4963645935,49.1999969482,21.941160202,53.2647705078,22.3788661957,22.8557167053,17.3666725159,10.7627191544
1.49743184436452E+018,58.165222168,-17.2756004333,13.3560037613,50,54.2762374878,22.0601902008,45.3229370117,51.4462547302,17.7176399231,52.9228591919,60.4963645935,49.1999969482,23.0044174194,53.2647705078,21.1398391724,23.5814342499,17.3666725159,10.7627191544
1.49743184437374E+018,59.0486907959,-17.8348693848,13.3560037613,50,54.2762374878,22.0601902008,45.3229370117,51.4462547302,23.6941108704,54.374294281,60.4963645935,50.7875022888,23.0044174194,53.2647705078,20.3138198853,24.307144165,17.3666725159,10.7627191544
1.49743184438294E+018,59.9321746826,-17.8348693848,13.3560037613,50,54.2762374878,22.922832489,45.3229370117,52.2626838684,23.6941108704,54.374294281,60.4963645935,51.5812492371,24.0676765442,52.5613822937,19.900812149,24.307144165,17.3666725159,10.7627191544
1.49743184439214E+018,60.8156509399,-18.3941268921,13.3560037613,50,54.2762374878,22.922832489,45.3229370117,52.2626838684,23.6941108704,55.8257141113,60.4963645935,51.5812492371,24.0676765442,52.5613822937,19.4878082275,25.0328598022,17.3666725159,10.7627191544
1.49743184440136E+018,61.6991348267,-18.3941268921,13.3560037613,50,54.2762374878,22.922832489,45.3229370117,52.2626838684,23.6941108704,55.8257141113,60.4963645935,52.375,25.1309337616,52.5613822937,18.6617908478,25.0328598022,17.3666725159,10.7627191544
1.49743184441062E+018,61.6991348267,-18.9533958435,13.3560037613,50,54.2762374878,22.922832489,45.3229370117,52.2626838684,23.6941108704,55.8257141113,60.4963645935,52.375,25.1309337616,52.5613822937,18.2487812042,25.0328598022,17.3666725159,10.7627191544
1.49743184441998E+018,62.582611084,-18.9533958435,11.0699987411,50,54.2762374878,22.922832489,45.3229370117,52.2626838684,23.6941108704,55.8257141113,60.4963645935,53.1687507629,26.194185257,52.5613822937,17.5260162354,25.0328598022,17.3666725159,9.9735927582
1.4974318444293E+018,62.582611084,-19.5126609802,11.0699987411,50,54.2762374878,22.922832489,45.3229370117,52.2626838684,29.670583725,55.8257141113,60.4963645935,53.9625015259,26.194185257,52.5613822937,16.7000045776,26.4842853546,17.3666725159,9.9735927582
1.49743184443856E+018,63.4660949707,-19.5126609802,11.0699987411,50,54.2762374878,24.6481132507,45.3229370117,52.2626838684,29.670583725,58.7285766602,58.8338165283,54.7562484741,27.2574424744,52.5613822937,16.2869949341,26.4842853546,17.3666725159,9.9735927582
1.49743184444779E+018,63.4660949707,-20.0719299316,11.0699987411,50,54.2762374878,24.6481132507,45.3229370117,52.2626838684,29.670583725,58.7285766602,58.8338165283,54.7562484741,27.2574424744,51.1546211243,15.460975647,27.2100009918,17.3666725159,9.5790300369
1.49743184445715E+018,63.4660949707,-20.0719299316,11.0699987411,50,54.2762374878,24.6481132507,45.3229370117,52.2626838684,32.6588134766,58.7285766602,58.8338165283,55.5499992371,28.3207015991,51.1546211243,15.0479660034,27.935716629,17.3666725159,9.5790300369
1.49743184446636E+018,63.4660949707,-20.6311950684,6.4980072975,50,55.1815872192,24.6481132507,45.3229370117,52.2626838684,35.6470565796,60.1800079346,58.8338165283,56.34375,28.3207015991,51.1546211243,14.221950531,27.935716629,17.3666725159,9.5790300369
1.49743184447555E+018,63.4660949707,-21.1904640198,4.7835125923,50,55.1815872192,24.6481132507,45.3229370117,52.2626838684,35.6470565796,60.1800079346,58.8338165283,56.34375,29.3839511871,51.1546211243,13.8089447021,28.6614341736,17.3666725159,9.5790300369
1.49743184448474E+018,63.4660949707,-21.7497310638,2.497508049,50,55.1815872192,24.6481132507,45.3229370117,52.2626838684,35.6470565796,61.2685775757,58.8338165283,56.9390640259,29.3839511871,51.1546211243,12.9829292297,29.2057170868,17.3666725159,9.5790300369
1.49743184449401E+018,63.4660949707,-22.3089981079,0.2115036845,50,55.1815872192,24.6481132507,45.3229370117,52.2626838684,35.6470565796,61.2685775757,58.8338165283,56.9390640259,30.4472084045,51.1546211243,12.5699195862,29.931432724,17.3666725159,8.7899036408
1.49743184450314E+018,65.233039856,-22.8682575226,-2.0745007992,50,55.1815872192,24.6481132507,45.3229370117,52.2626838684,35.6470565796,62.7200088501,58.8338165283,57.7328109741,31.5104675293,51.1546211243,11.7439002991,30.6571445465,17.3666725159,8.7899036408
1.49743184451237E+018,65.233039856,-22.8682575226,-4.3604879379,50,55.1815872192,24.6481132507,45.3229370117,52.2626838684,35.6470565796,62.7200088501,58.8338165283,57.7328109741,31.5104675293,51.1546211243,11.0211410522,31.3828601837,17.3666725159,8.7899036408
1.49743184452161E+018,65.233039856,-23.9867916107,-6.6464924812,50,55.1815872192,26.3733997345,45.3229370117,52.2626838684,35.6470565796,64.1714324951,58.8338165283,57.7328109741,32.5737266541,51.1546211243,10.1951217651,32.1085739136,17.3666725159,8.4939804077
1.49743184453081E+018,66.1165161133,-24.5460586548,-6.6464924812,50,55.1815872192,26.3733997345,45.3229370117,52.2626838684,35.6470565796,64.1714324951,58.8338165283,57.7328109741,33.3711662292,51.1546211243,9.7821121216,32.8342895508,17.3666725159,8.4939804077
1.49743184454007E+018,66.1165161133,-25.1053256989,-8.9324970245,50,55.1815872192,25.5107555389,47.3399887085,52.2626838684,40.8764648438,65.6228637695,58.8338165283,57.7328109741,34.4344215393,51.1546211243,8.9560966492,32.8342895508,17.3666725159,8.0994186401
1.49743184454927E+018,66.1165161133,-26.0840377808,-8.9324970245,50,55.1815872192,25.5107555389,47.3399887085,52.2626838684,40.8764648438,65.6228637695,58.0025405884,57.7328109741,34.4344215393,51.1546211243,8.543094635,33.5600013733,17.3666725159,8.0994186401
1.49743184455844E+018,66.1165161133,-26.6433048248,-11.2184839249,50,55.1815872192,25.5107555389,47.3399887085,52.2626838684,40.8764648438,67.0742950439,58.0025405884,57.7328109741,35.4976730347,51.1546211243,8.1300849915,33.5600013733,17.3666725159,8.0994186401
1.49743184456757E+018,66.1165161133,-27.761838913,-13.504488945,50,55.1815872192,25.5107555389,47.3399887085,52.2626838684,40.8764648438,67.0742950439,58.0025405884,57.7328109741,35.4976730347,51.1546211243,7.7170753479,34.2857170105,17.3666725159,8.0994186401
1.49743184457677E+018,66.1165161133,-28.8803730011,-13.504488945,50,56.0869216919,25.5107555389,47.3399887085,52.2626838684,40.8764648438,67.0742950439,58.0025405884,57.7328109741,36.5609321594,51.1546211243,7.3040657044,34.2857170105,17.3666725159,8.0994186401
1.49743184458597E+018,66.1165161133,-29.4396419525,-15.7904930115,50,56.0869216919,25.5107555389,47.3399887085,52.2626838684,40.8764648438,67.0742950439,58.0025405884,57.7328109741,36.5609321594,51.1546211243,6.8910560608,35.0114326477,17.3666725159,8.0994186401
1.49743184459529E+018,66.1165161133,-29.9988994598,-18.0764980316,50,56.0869216919,25.5107555389,47.3399887085,52.2626838684,40.8764648438,67.0742950439,58.0025405884,57.7328109741,37.6241912842,51.1546211243,6.4780540466,35.0114326477,17.3666725159,8.0994186401
1.49743184460452E+018,66.1165161133,-30.5581665039,-18.0764980316,50,56.0869216919,25.5107555389,47.3399887085,52.2626838684,40.8764648438,69.977142334,58.0025405884,57.7328109741,37.6241912842,51.1546211243,6.4780540466,35.0114326477,17.3666725159,8.0994186401
1.49743184461381E+018,66.1165161133,-30.5581665039,-20.3624839783,50,56.0869216919,25.5107555389,47.3399887085,53.8955345154,46.852935791,69.977142334,58.0025405884,57.7328109741,37.6241912842,51.1546211243,6.0650444031,35.0114326477,17.3666725159,8.0994186401
1.49743184462321E+018,66.1165161133,-31.1174354553,-22.6484889984,50,56.0869216919,25.5107555389,47.3399887085,53.0791053772,46.852935791,69.977142334,58.0025405884,57.7328109741,37.6241912842,51.1546211243,6.0650444031,35.0114326477,17.3666725159,7.7048544884
1.49743184463256E+018,66.1165161133,-31.6767024994,-22.6484889984,50,56.0869216919,23.7854766846,47.3399887085,53.8955345154,46.852935791,69.977142334,58.0025405884,57.7328109741,37.6241912842,51.1546211243,5.6520347595,35.0114326477,17.3666725159,7.7048544884
1.49743184464185E+018,66.1165161133,-32.2359695435,-24.9344940186,50,56.0869216919,23.7854766846,47.3399887085,53.8955345154,46.852935791,69.977142334,58.0025405884,56.9390640259,37.6241912842,51.1546211243,5.6520347595,35.0114326477,17.3666725159,7.7048544884
1.49743184465126E+018,66.1165161133,-32.7952346802,-24.9344940186,50,56.9922714233,22.922832489,47.3399887085,53.8955345154,46.852935791,69.977142334,58.0025405884,56.9390640259,39.7506980896,51.1546211243,5.6520347595,35.7371482849,17.3666725159,7.7048544884
1.49743184466058E+018,66.1165161133,-33.3545036316,-24.9344940186,50,56.9922714233,22.922832489,47.3399887085,53.8955345154,46.852935791,69.977142334,57.1712684631,56.9390640259,39.7506980896,51.8579978943,5.6520347595,35.7371482849,17.3666725159,7.7048544884
1.49743184466982E+018,66.1165161133,-33.9137611389,-24.9344940186,50,56.9922714233,22.0601902008,50.0294036865,53.8955345154,46.852935791,69.977142334,57.1712684631,56.9390640259,39.7506980896,51.8579978943,5.6520347595,35.7371482849,17.3666725159,7.7048544884
1.49743184467918E+018,66.1165161133,-34.4730300903,-24.9344940186,50,56.9922714233,22.0601902008,50.0294036865,53.8955345154,46.852935791,69.977142334,57.1712684631,56.9390640259,40.8139572144,51.8579978943,5.6520347595,35.7371482849,17.3666725159,7.7048544884
1.49743184468852E+018,66.1165161133,-34.8924827576,-29.5064849854,50,56.9922714233,21.1975460052,50.0294036865,53.8955345154,40.8764648438,71.4285736084,57.1712684631,56.34375,41.8772163391,51.8579978943,5.6520347595,35.7371482849,17.3666725159,7.310292244
1.49743184469779E+018,66.1165161133,-35.4517478943,-31.2209968567,50,58.8029670715,20.3349094391,50.0294036865,53.8955345154,40.8764648438,71.4285736084,57.1712684631,56.34375,41.8772163391,51.8579978943,6.4780540466,35.7371482849,17.3666725159,7.310292244
1.49743184470715E+018,66.1165161133,-36.5702819824,-31.2209968567,50,58.8029670715,20.3349094391,50.0294036865,55.5283927917,40.8764648438,71.4285736084,57.1712684631,56.34375,41.8772163391,51.8579978943,6.4780540466,35.7371482849,17.3666725159,7.310292244
1.49743184471647E+018,66.1165161133,-36.5702819824,-33.5069847107,50,58.8029670715,19.4722652435,50.0294036865,55.5283927917,37.8882369995,74.3314437866,57.1712684631,56.34375,41.8772163391,51.8579978943,6.4780540466,34.2857170105,17.3666725159,7.310292244
1.49743184472579E+018,66.1165161133,-37.1295433044,-33.5069847107,50,59.708316803,18.6096229553,52.7188224792,55.5283927917,37.8882369995,74.3314437866,57.1712684631,56.34375,44.0037307739,51.8579978943,6.8910560608,33.5600013733,17.3666725159,7.310292244
1.49743184473502E+018,66.1165161133,-37.6888084412,-35.7929878235,50,59.708316803,18.6096229553,52.7188224792,55.5283927917,35.6470565796,74.3314437866,57.1712684631,56.34375,44.0037307739,51.8579978943,7.3040657044,33.5600013733,17.3666725159,7.310292244
1.49743184474432E+018,66.1165161133,-38.2480773926,-38.078994751,50,60.6136627197,17.7469806671,52.7188224792,55.5283927917,35.6470565796,74.3314437866,57.1712684631,55.5499992371,45.0669746399,51.8579978943,7.7170753479,32.8342895508,16.601940155,6.9157295227
1.49743184475357E+018,67.8834762573,-38.2480773926,-40.3649978638,50,60.6136627197,16.8843421936,52.7188224792,55.5283927917,35.6470565796,74.3314437866,57.1712684631,55.5499992371,45.0669746399,51.8579978943,8.1300849915,32.1085739136,16.601940155,6.9157295227
1.4974318447629E+018,67.8834762573,-38.8073425293,-40.3649978638,50,60.6136627197,16.2373580933,52.7188224792,55.5283927917,35.6470565796,74.3314437866,57.1712684631,55.5499992371,46.13022995,51.8579978943,8.543094635,30.6571445465,16.601940155,6.9157295227
1.49743184477222E+018,67.8834762573,-38.8073425293,-42.6509857178,50,60.6136627197,16.2373580933,52.7188224792,55.5283927917,35.6470565796,74.3314437866,57.1712684631,55.5499992371,46.13022995,51.8579978943,8.9560966492,29.931432724,16.601940155,6.9157295227
1.49743184478152E+018,67.8834762573,-38.8073425293,-42.6509857178,50,60.6136627197,15.3747205734,52.7188224792,55.5283927917,29.670583725,74.3314437866,57.1712684631,55.5499992371,47.1934890747,51.8579978943,9.7821121216,29.2057170868,15.0724754333,6.9157295227
1.49743184479083E+018,67.8834762573,-38.8073425293,-44.9369888306,50,60.6136627197,15.3747205734,52.7188224792,55.5283927917,29.670583725,75.782875061,57.1712684631,55.5499992371,47.1934890747,52.5613822937,10.1951217651,27.935716629,15.0724754333,6.9157295227
1.49743184480016E+018,67.8834762573,-38.8073425293,-44.9369888306,50,60.6136627197,14.5120773315,55.4082374573,55.5283927917,26.682352066,75.782875061,57.1712684631,55.5499992371,47.1934890747,52.5613822937,10.1951217651,27.935716629,15.0724754333,7.7048544884
1.49743184480951E+018,67.8834762573,-38.8073425293,-44.9369888306,50,60.6136627197,14.5120773315,55.4082374573,55.5283927917,29.670583725,75.782875061,57.1712684631,55.5499992371,47.1934890747,52.5613822937,10.6081314087,26.4842853546,15.0724754333,8.0994186401
1.49743184481872E+018,67.8834762573,-38.8073425293,-44.9369888306,50,60.6136627197,13.6494340897,55.4082374573,55.5283927917,26.682352066,75.782875061,57.1712684631,53.9625015259,47.1934890747,52.5613822937,11.0211410522,25.0328598022,15.0724754333,8.0994186401
1.49743184482802E+018,67.8834762573,-38.8073425293,-44.9369888306,50,61.5190124512,13.6494340897,55.4082374573,55.5283927917,23.6941108704,75.782875061,57.1712684631,53.9625015259,47.1934890747,52.5613822937,11.7439002991,23.5814342499,15.0724754333,8.4939804077
1.49743184483723E+018,67.8834762573,-39.3666114807,-44.9369888306,50,61.5190124512,13.6494340897,55.4082374573,55.5283927917,23.6941108704,75.782875061,57.1712684631,53.1687507629,47.1934890747,52.5613822937,12.1569099426,22.8557167053,15.0724754333,8.4939804077
1.49743184484646E+018,67.8834762573,-39.3666114807,-44.9369888306,50,61.5190124512,13.6494340897,58.0976333618,55.5283927917,23.6941108704,75.782875061,57.1712684631,52.375,47.1934890747,52.5613822937,12.9829292297,21.4042854309,15.0724754333,8.7899036408
1.49743184485571E+018,67.8834762573,-39.3666114807,-44.9369888306,50,61.5190124512,13.6494340897,58.0976333618,56.3448257446,23.6941108704,75.782875061,57.1712684631,51.5812492371,47.1934890747,52.5613822937,12.9829292297,20.6785755157,15.0724754333,8.7899036408
1.49743184486494E+018,67.8834762573,-39.3666114807,-44.9369888306,50,61.5190124512,11.9241542816,58.0976333618,56.3448257446,23.6941108704,75.782875061,57.1712684631,50.7875022888,47.1934890747,52.5613822937,13.3959388733,19.2271442413,14.498922348,9.184466362
1.49743184487411E+018,67.8834762573,-39.3666114807,-44.9369888306,50,61.5190124512,11.9241542816,58.0976333618,56.3448257446,23.6941108704,75.782875061,57.1712684631,49.9937477112,47.1934890747,52.5613822937,13.8089447021,18.5014286041,14.498922348,9.184466362
1.49743184488339E+018,67.8834762573,-39.3666114807,-44.9369888306,50,61.5190124512,11.0615110397,58.0976333618,56.3448257446,23.6941108704,75.782875061,57.1712684631,49.1999969482,47.1934890747,52.5613822937,14.221950531,17.7757167816,14.498922348,9.5790300369
1.49743184489273E+018,67.8834762573,-39.3666114807,-44.9369888306,50,61.5190124512,11.0615110397,58.0976333618,56.3448257446,23.6941108704,75.782875061,57.1712684631,48.40625,47.1934890747,52.5613822937,14.221950531,17.2314281464,14.498922348,9.5790300369
1.49743184490202E+018,69.6504364014,-39.3666114807,-44.9369888306,50,61.5190124512,11.0615110397,58.0976333618,56.9571495056,20.7058811188,75.782875061,57.1712684631,47.6124992371,47.1934890747,52.5613822937,14.6349563599,16.5057182312,14.498922348,9.5790300369
1.49743184491124E+018,70.5339202881,-38.2480773926,-44.9369888306,50,61.5190124512,11.0615110397,63.4764671326,56.9571495056,20.7058811188,75.782875061,57.1712684631,46.0249977112,47.1934890747,52.5613822937,15.0479660034,15.0542860031,12.9694671631,9.5790300369
1.49743184492053E+018,71.1965179443,-38.2480773926,-44.9369888306,50,61.5190124512,11.0615110397,63.4764671326,56.9571495056,14.7294082642,75.782875061,57.1712684631,45.2312507629,47.1934890747,52.5613822937,15.0479660034,14.3285703659,12.9694671631,9.5790300369
1.49743184492985E+018,71.1965179443,-37.6888084412,-44.9369888306,50,61.5190124512,11.0615110397,63.4764671326,56.9571495056,14.7294082642,78.6857147217,57.1712684631,43.8421897888,47.1934890747,52.5613822937,15.460975647,13.6028594971,12.9694671631,9.5790300369
1.49743184493912E+018,72.0800018311,-37.6888084412,-44.9369888306,50,62.4243469238,12.7867908478,66.1658859253,56.9571495056,11.7411689758,78.6857147217,57.1712684631,43.0484390259,47.1934890747,52.5613822937,15.460975647,12.8771438599,12.9694671631,10.3681564331
1.49743184494838E+018,72.9634857178,-37.1295433044,-44.9369888306,50,62.4243469238,13.6494340897,66.1658859253,56.9571495056,8.7529258728,80.1371459961,57.1712684631,42.2546844482,47.1934890747,52.5613822937,15.8739852905,12.8771438599,12.9694671631,10.3681564331
1.49743184495772E+018,73.8469543457,-36.5702819824,-44.9369888306,50,62.4243469238,13.6494340897,68.8552780151,55.5283927917,8.7529258728,80.1371459961,57.1712684631,41.4609413147,48.2567481995,52.5613822937,15.8739852905,12.1514282227,12.9694671631,10.3681564331
1.49743184496698E+018,73.8469543457,-36.5702819824,-44.9369888306,50,62.4243469238,14.5120773315,68.8552780151,55.5283927917,5.764705658,80.1371459961,57.1712684631,40.6671905518,48.2567481995,52.5613822937,16.2869949341,12.1514282227,12.9694671631,10.3681564331
1.49743184497629E+018,74.7304382324,-36.0110168457,-44.9369888306,50,62.4243469238,14.5120773315,68.8552780151,54.7119636536,2.7764663696,80.1371459961,57.1712684631,39.8734359741,48.2567481995,52.5613822937,16.2869949341,11.4257173538,12.9694671631,10.3681564331
1.49743184498557E+018,74.7304382324,-35.4517478943,-44.9369888306,50,63.3296966553,15.3747205734,68.8552780151,54.7119636536,2.7764663696,80.1371459961,55.7165489197,39.8734359741,48.2567481995,51.8579978943,16.2869949341,11.4257173538,11.4400024414,10.3681564331
1.49743184499483E+018,75.6139221191,-34.8924827576,-44.9369888306,50,63.3296966553,15.3747205734,68.8552780151,54.7119636536,-0.2117767334,80.1371459961,56.5478210449,39.0796852112,48.2567481995,51.8579978943,16.2869949341,11.4257173538,11.4400024414,10.3681564331
1.49743184500399E+018,75.6139221191,-33.9137611389,-44.9369888306,50,63.3296966553,15.3747205734,68.8552780151,54.7119636536,-0.2117767334,80.1371459961,56.5478210449,39.0796852112,48.2567481995,51.8579978943,16.2869949341,11.4257173538,11.4400024414,10.3681564331
1.49743184501329E+018,76.4973907471,-33.3545036316,-44.9369888306,50,63.3296966553,15.3747205734,68.8552780151,54.7119636536,-0.2117767334,80.1371459961,55.7165489197,38.2859382629,48.2567481995,51.8579978943,16.2869949341,11.4257173538,10.6752700806,10.7627191544
1.49743184502259E+018,77.380859375,-32.7952346802,-44.9369888306,50,63.3296966553,15.3747205734,68.8552780151,54.7119636536,-0.2117767334,80.1371459961,55.7165489197,37.4921875,48.2567481995,51.8579978943,16.2869949341,11.4257173538,10.6752700806,10.7627191544
1.49743184503198E+018,77.380859375,-32.2359695435,-44.9369888306,50,63.3296966553,15.3747205734,68.8552780151,54.7119636536,-0.2117767334,81.5885772705,55.7165489197,36.6984367371,49.0541954041,51.8579978943,17.1130104065,11.4257173538,10.6752700806,10.7627191544
1.49743184504134E+018,79.1478271484,-31.1174354553,-49.5089797974,50,63.3296966553,16.8843421936,68.8552780151,54.7119636536,-0.2117767334,81.5885772705,55.7165489197,35.1109390259,49.0541954041,51.8579978943,17.5260162354,11.4257173538,10.6752700806,10.7627191544
1.49743184505073E+018,79.1478271484,-30.5581665039,-49.5089797974,50,64.2350463867,16.8843421936,68.8552780151,54.7119636536,-0.2117767334,81.5885772705,55.7165489197,34.3171882629,49.0541954041,51.8579978943,17.5260162354,9.9742860794,10.6752700806,10.7627191544
1.4974318450601E+018,80.0313110352,-29.4396419525,-49.5089797974,50,64.2350463867,17.7469806671,68.8552780151,54.7119636536,-0.2117767334,81.5885772705,55.7165489197,33.5234375,49.0541954041,51.8579978943,17.835773468,10.7000017166,10.6752700806,10.7627191544
1.49743184506944E+018,80.9147796631,-28.8803730011,-51.7949867249,50,64.2350463867,16.8843421936,71.5446929932,54.7119636536,-0.2117767334,81.5885772705,55.7165489197,32.7296905518,49.0541954041,51.8579978943,17.835773468,10.7000017166,10.6752700806,11.5518455505
1.49743184507879E+018,80.9147796631,-27.761838913,-51.7949867249,50,64.2350463867,16.8843421936,71.5446929932,54.7119636536,-0.2117767334,82.677154541,56.5478210449,32.7296905518,49.0541954041,51.8579978943,17.835773468,10.7000017166,9.1458034515,11.5518455505
1.49743184508805E+018,81.7982635498,-26.6433048248,-49.5089797974,50,64.2350463867,16.8843421936,71.5446929932,54.7119636536,-0.2117767334,82.677154541,56.5478210449,31.9359378815,47.1934890747,51.8579978943,17.835773468,10.7000017166,9.1458034515,11.5518455505
1.49743184509725E+018,82.6817474365,-26.0840377808,-49.5089797974,50,64.2350463867,16.8843421936,71.5446929932,54.7119636536,-0.2117767334,82.677154541,56.5478210449,31.3406276703,47.1934890747,51.8579978943,17.835773468,10.7000017166,9.1458034515,11.5518455505
1.49743184510643E+018,83.5652160645,-25.1053256989,-49.5089797974,50,63.3296966553,15.3747205734,71.5446929932,54.7119636536,-0.2117767334,82.677154541,56.5478210449,30.5468769073,47.1934890747,51.8579978943,17.835773468,10.7000017166,9.9105377197,11.5518455505
1.49743184511557E+018,83.5652160645,-24.5460586548,-49.5089797974,50,63.3296966553,15.3747205734,71.5446929932,54.7119636536,-0.2117767334,82.677154541,56.5478210449,30.5468769073,46.13022995,51.8579978943,18.6617908478,10.7000017166,9.9105377197,11.5518455505
1.49743184512486E+018,83.5652160645,-23.9867916107,-44.9369888306,50,63.3296966553,15.3747205734,71.5446929932,54.7119636536,-0.2117767334,82.677154541,56.5478210449,30.5468769073,46.13022995,51.8579978943,19.0748004913,10.7000017166,9.9105377197,11.5518455505
1.49743184513407E+018,83.5652160645,-23.4275245667,-44.9369888306,50,63.3296966553,15.3747205734,71.5446929932,54.7119636536,-0.2117767334,82.677154541,56.5478210449,30.5468769073,45.0669746399,51.8579978943,19.4878082275,9.2485704422,9.9105377197,11.5518455505
1.49743184514325E+018,83.5652160645,-22.8682575226,-42.6509857178,50,63.3296966553,15.3747205734,71.5446929932,54.7119636536,-0.2117767334,82.677154541,56.5478210449,30.5468769073,44.0037307739,51.8579978943,20.3138198853,7.7971439362,9.9105377197,11.5518455505
1.49743184515248E+018,83.5652160645,-22.8682575226,-42.6509857178,50,63.3296966553,15.3747205734,71.5446929932,54.7119636536,-0.2117767334,82.677154541,56.5478210449,30.5468769073,42.9404716492,51.8579978943,21.1398391724,7.0714278221,9.9105377197,11.5518455505
1.49743184516174E+018,83.5652160645,-22.8682575226,-42.6509857178,50,63.3296966553,15.3747205734,71.5446929932,54.7119636536,-0.2117767334,80.1371459961,56.5478210449,30.5468769073,41.8772163391,51.8579978943,21.9658565521,5.8014278412,9.9105377197,11.5518455505
1.49743184517101E+018,83.5652160645,-22.8682575226,-42.6509857178,50,62.4243469238,15.3747205734,71.5446929932,54.7119636536,-0.2117767334,80.1371459961,56.5478210449,30.5468769073,40.8139572144,51.8579978943,22.7918682098,5.075712204,9.9105377197,11.5518455505
1.49743184518038E+018,83.5652160645,-22.8682575226,-42.6509857178,50,62.4243469238,15.3747205734,71.5446929932,54.7119636536,-0.2117767334,80.1371459961,56.5478210449,30.5468769073,39.7506980896,51.8579978943,23.6178855896,5.075712204,9.9105377197,11.5518455505
1.49743184518978E+018,81.7982635498,-22.8682575226,-38.078994751,50,62.4243469238,15.3747205734,71.5446929932,54.7119636536,-6.1882362366,78.6857147217,56.5478210449,30.5468769073,39.7506980896,52.5613822937,24.0308952332,5.075712204,9.9105377197,11.5518455505
1.49743184519905E+018,80.9147796631,-21.7497310638,-35.7929878235,50,62.4243469238,15.3747205734,71.5446929932,54.7119636536,-6.1882362366,78.6857147217,58.0025405884,30.5468769073,38.6874465942,52.5613822937,24.753660202,5.075712204,11.4400024414,11.5518455505
1.49743184520826E+018,79.1478271484,-21.7497310638,-29.5064849854,50,62.4243469238,16.8843421936,71.5446929932,56.3448257446,-9.1764755249,77.2342834473,58.0025405884,30.5468769073,37.6241912842,52.5613822937,25.1666660309,5.075712204,11.4400024414,11.5518455505
1.49743184521747E+018,77.380859375,-21.7497310638,-24.9344940186,50,62.4243469238,16.8843421936,71.5446929932,56.3448257446,-9.1764755249,77.2342834473,58.0025405884,30.5468769073,36.5609321594,52.5613822937,25.5796756744,5.075712204,12.2047348022,11.5518455505
1.49743184522675E+018,75.6139221191,-21.1904640198,-15.7904930115,50,62.4243469238,17.7469806671,71.5446929932,56.9571495056,-11.4176483154,75.782875061,58.8338165283,30.5468769073,36.5609321594,52.5613822937,26.4056911469,5.075712204,12.2047348022,11.5518455505
1.49743184523594E+018,73.8469543457,-21.1904640198,-8.9324970245,50,61.5190124512,17.7469806671,71.5446929932,56.9571495056,-14.4058914185,75.782875061,58.8338165283,31.9359378815,35.4976730347,52.5613822937,26.8186988831,5.075712204,12.9694671631,11.5518455505
1.49743184524518E+018,71.1965179443,-21.1904640198,-4.3604879379,50,61.5190124512,18.6096229553,71.5446929932,57.7735671997,-14.4058914185,74.3314437866,59.6650924683,31.9359378815,34.4344215393,52.5613822937,27.2317085266,3.6242859364,12.9694671631,11.5518455505
1.49743184525443E+018,67.8834762573,-21.1904640198,0.2115036845,50,61.5190124512,18.6096229553,71.5446929932,57.7735671997,-14.4058914185,72.8800048828,59.6650924683,32.7296905518,33.3711662292,52.5613822937,27.6447162628,2.8985700607,13.7342014313,11.5518455505
1.4974318452637E+018,64.349571228,-21.1904640198,2.497508049,50,61.5190124512,18.6096229553,71.5446929932,57.7735671997,-14.4058914185,71.4285736084,59.6650924683,32.7296905518,32.5737266541,53.9681549072,28.0577220917,2.1728596687,13.7342014313,11.5518455505
1.49743184527291E+018,59.9321746826,-21.1904640198,4.7835125923,50,61.5190124512,18.6096229553,71.5446929932,57.7735671997,-14.4058914185,69.977142334,59.6650924683,33.5234375,31.5104675293,53.9681549072,28.8837413788,1.4471439123,13.7342014313,11.5518455505
1.49743184528218E+018,56.6191329956,-21.1904640198,6.4980072975,50,59.708316803,18.6096229553,71.5446929932,57.7735671997,-20.3823471069,68.5257263184,59.6650924683,33.5234375,30.4472084045,53.9681549072,29.296749115,0.7214280963,13.7342014313,11.5518455505
1.49743184529143E+018,53.9686889648,-21.1904640198,6.4980072975,50,59.708316803,18.6096229553,71.5446929932,59.4064292908,-20.3823471069,67.0742950439,59.6650924683,33.5234375,28.3207015991,53.9681549072,30.1227645874,0.7214280963,13.7342014313,11.5518455505
1.49743184530065E+018,52.2017440796,-21.1904640198,8.7840118408,50,58.8029670715,18.6096229553,66.1658859253,60.222858429,-20.3823471069,65.6228637695,59.6650924683,33.5234375,28.3207015991,53.9681549072,30.8455295563,0.7214280963,13.7342014313,11.5518455505
1.49743184530989E+018,50.4347839355,-20.0719299316,8.7840118408,50,58.8029670715,18.6096229553,66.1658859253,61.0392875671,-17.3941268921,64.1714324951,61.3276405334,33.5234375,26.194185257,53.9681549072,31.2585372925,0.7214280963,13.7342014313,11.5518455505
1.49743184531913E+018,49.5513076782,-20.0719299316,11.0699987411,50,57.8976173401,18.6096229553,63.4764671326,61.85572052,-17.3941268921,62.7200088501,61.3276405334,33.5234375,26.194185257,53.9681549072,31.6715431213,0.7214280963,13.7342014313,11.5518455505
1.49743184532829E+018,48.6678314209,-19.5126609802,11.0699987411,50,56.9922714233,20.3349094391,63.4764671326,62.6721496582,-14.4058914185,61.2685775757,61.3276405334,33.5234375,24.0676765442,53.9681549072,32.0845527649,0.7214280963,13.7342014313,11.5518455505
1.49743184533747E+018,46.0173873901,-19.5126609802,11.0699987411,50,56.9922714233,21.1975460052,60.7870521545,62.6721496582,-14.4058914185,58.7285766602,62.1589012146,33.5234375,23.0044174194,53.9681549072,32.9105682373,2.1728596687,13.7342014313,11.5518455505
1.49743184534677E+018,43.5878295898,-18.9533958435,11.0699987411,50,56.0869216919,21.1975460052,60.7870521545,63.4885673523,-14.4058914185,57.2771453857,62.1589012146,35.1109390259,21.941160202,53.9681549072,34.1495933533,2.8985700607,13.7342014313,11.5518455505
1.49743184535598E+018,41.8208694458,-18.9533958435,11.0699987411,50,55.1815872192,21.1975460052,58.0976333618,62.6721496582,-14.4058914185,55.8257141113,61.3276405334,34.3171882629,19.8146514893,53.9681549072,34.5626029968,2.1728596687,13.7342014313,11.5518455505
1.49743184536521E+018,40.9373931885,-18.3941268921,11.0699987411,50,54.2762374878,21.1975460052,58.0976333618,62.6721496582,-9.1764755249,52.9228591919,61.3276405334,34.3171882629,17.6881351471,52.5613822937,35.3886184692,2.8985700607,13.7342014313,12.340970993
1.49743184537447E+018,37.4034805298,-17.2756004333,11.0699987411,50,54.2762374878,21.1975460052,55.4082374573,62.6721496582,-9.1764755249,51.4714279175,61.3276405334,34.3171882629,16.6248855591,52.5613822937,35.3886184692,4.350001812,13.7342014313,12.735534668
1.49743184538373E+018,32.9860916138,-16.8561477661,15.6420078278,50,53.370891571,21.1975460052,55.4082374573,62.6721496582,-6.1882362366,51.4714279175,61.3276405334,34.3171882629,15.8274374008,52.5613822937,35.8016281128,4.350001812,13.7342014313,12.735534668
1.49743184539297E+018,28.78956604,-16.8561477661,15.6420078278,50,52.4655418396,21.1975460052,55.4082374573,60.222858429,-9.1764755249,48.5685768127,61.3276405334,34.3171882629,14.7641878128,51.8579978943,36.6276397705,3.6242859364,13.7342014313,13.1300983429
1.49743184540215E+018,24.372177124,-16.2968826294,15.6420078278,50,51.7865257263,21.1975460052,55.4082374573,59.4064292908,-9.1764755249,47.1171455383,61.3276405334,34.3171882629,12.6376714706,51.8579978943,37.7634162903,3.6242859364,12.2047348022,13.5246610641
1.49743184541145E+018,21.7217407227,-16.2968826294,15.6420078278,50,51.7865257263,19.4722652435,55.4082374573,57.7735671997,-6.1882362366,45.6657142639,61.3276405334,32.7296905518,10.5111627579,51.8579978943,39.0024375916,2.8985700607,12.9694671631,13.5246610641
1.49743184542072E+018,19.9547805786,-16.2968826294,15.6420078278,50,50.8811798096,19.4722652435,55.4082374573,56.9571495056,-6.1882362366,42.7628593445,61.3276405334,32.7296905518,8.3846464157,51.8579978943,41.893497467,1.4471439123,12.9694671631,13.9192237854
1.49743184542997E+018,19.9547805786,-16.2968826294,15.6420078278,50,49.9758453369,19.4722652435,55.4082374573,56.3448257446,-3.2000160217,41.3114280701,59.6650924683,31.3406276703,6.2581381798,51.8579978943,45.0943069458,0.7214280963,12.9694671631,13.9192237854
1.4974318454392E+018,19.9547805786,-16.2968826294,15.6420078278,50,49.0704956055,18.6096229553,50.0294036865,55.5283927917,-3.2000160217,39.8599967957,56.5478210449,30.5468769073,6.2581381798,49.9236946106,44.6813011169,2.8985700607,12.9694671631,13.9192237854
1.49743184544841E+018,19.9547805786,-16.2968826294,15.6420078278,50,48.165145874,18.6096229553,50.0294036865,53.8955345154,-3.2000160217,38.4085769653,54.8852729797,30.5468769073,6.2581381798,47.813533783,43.5455284119,4.350001812,12.9694671631,13.9192237854
1.49743184545767E+018,18.187828064,-16.2968826294,15.6420078278,50,47.2597999573,17.7469806671,45.3229370117,51.4462547302,2.7764663696,37.3199958801,53.2227249146,31.9359378815,6.2581381798,47.1101608276,43.5455284119,4.350001812,12.9694671631,13.9192237854
1.49743184546692E+018,16.4208679199,-17.2756004333,15.6420078278,50,46.3544502258,17.7469806671,45.3229370117,49.8133964539,5.764705658,35.8685760498,51.5601768494,31.3406276703,4.1316218376,45.7033882141,43.8552856445,2.8985700607,12.9694671631,13.9192237854
1.497431845476E+018,14.8747787476,-17.2756004333,15.6420078278,50,44.5437545776,16.8843421936,42.633518219,48.996963501,8.7529258728,34.4171447754,49.8976402283,30.5468769073,4.1316218376,45,44.6813011169,2.1728596687,12.9694671631,13.9192237854
1.49743184548519E+018,13.1078262329,-17.8348693848,15.6420078278,50,44.5437545776,16.8843421936,42.633518219,47.3641052246,11.7411689758,32.965713501,49.0663642883,30.5468769073,3.0683717728,43.5932350159,44.6813011169,2.1728596687,12.9694671631,14.7083511353
1.49743184549441E+018,12.2243499756,-17.8348693848,15.6420078278,50,43.6384048462,16.8843421936,42.633518219,46.5476875305,11.7411689758,31.5142822266,48.2350883484,30.5468769073,2.0051136017,42.8898468018,45.0943069458,2.1728596687,12.9694671631,14.7083511353
1.49743184550358E+018,11.3408737183,-17.8348693848,15.6420078278,50,42.7330703735,16.8843421936,42.633518219,46.5476875305,14.7294082642,30.0628604889,47.4038162231,30.5468769073,2.0051136017,42.1864624023,45.5073165894,2.1728596687,12.9694671631,14.7083511353
1.49743184551291E+018,12.2243499756,-17.8348693848,15.6420078278,50,41.8277244568,16.8843421936,42.633518219,45.7312545776,17.7176399231,30.0628604889,46.5725402832,30.5468769073,2.0051136017,42.1864624023,45.5073165894,2.1728596687,12.9694671631,14.7083511353
1.49743184552222E+018,13.1078262329,-17.8348693848,15.6420078278,50,41.8277244568,16.8843421936,42.633518219,45.7312545776,17.7176399231,30.0628604889,46.5725402832,30.5468769073,2.0051136017,42.1864624023,45.5073165894,2.1728596687,12.9694671631,14.7083511353
1.49743184553145E+018,13.9913101196,-17.8348693848,15.6420078278,50,41.8277244568,16.8843421936,42.633518219,44.9148254395,17.7176399231,30.0628604889,46.5725402832,30.5468769073,2.0051136017,42.1864624023,45.5073165894,2.1728596687,13.7342014313,14.7083511353
1.49743184554066E+018,14.8747787476,-17.8348693848,15.6420078278,50,41.8277244568,16.2373580933,39.9441223145,44.9148254395,17.7176399231,30.0628604889,46.5725402832,30.5468769073,2.0051136017,42.1864624023,45.5073165894,2.1728596687,13.7342014313,14.7083511353
1.4974318455499E+018,15.7582626343,-18.3941268921,13.3560037613,50,41.8277244568,16.2373580933,39.9441223145,44.0983963013,17.7176399231,30.0628604889,46.5725402832,30.5468769073,2.0051136017,42.1864624023,45.5073165894,2.1728596687,13.7342014313,14.7083511353
