%time,field.position0,field.position1,field.position2,field.position3,field.position4,field.position5,field.position6,field.position7,field.position8,field.position9,field.position10,field.position11,field.position12,field.position13,field.position14,field.position15,field.position16,field.position17
1.49743298802437E+018,38.2869567871,-14.0598211288,6.4980072975,50,40.9223747253,19.4722652435,31.8758926392,44.9148254395,29.670583725,18.4514293671,50.7289123535,35.9046859741,0.9418554306,45,44.6813011169,-3.6328561306,17.3666725159,8.7899036408
1.49743298803371E+018,38.2869567871,-13.5005531311,6.4980072975,50,40.0170249939,18.6096229553,31.8758926392,44.9148254395,23.6941108704,18.4514293671,50.7289123535,35.1109390259,0.9418554306,44.2966156006,45.5073165894,-3.6328561306,17.3666725159,8.7899036408
1.49743298804302E+018,37.4034805298,-13.5005531311,6.4980072975,50,40.0170249939,18.6096229553,31.8758926392,44.9148254395,23.6941108704,18.4514293671,49.8976402283,35.1109390259,0.9418554306,44.2966156006,45.9203262329,-3.6328561306,17.3666725159,8.7899036408
1.49743298805228E+018,36.5200042725,-12.941286087,6.4980072975,50,40.0170249939,18.6096229553,31.8758926392,44.9148254395,23.6941108704,18.4514293671,49.8976402283,35.1109390259,0.9418554306,43.5932350159,46.3333358765,-3.6328561306,17.3666725159,8.7899036408
1.49743298806155E+018,35.6365203857,-12.382019043,6.4980072975,50,40.0170249939,18.6096229553,31.8758926392,44.9148254395,23.6941108704,18.4514293671,49.8976402283,35.1109390259,0.9418554306,42.8898468018,46.7463417053,-3.6328561306,17.3666725159,9.184466362
1.49743298807089E+018,34.7530441284,-12.382019043,11.0699987411,50,40.0170249939,18.6096229553,31.8758926392,44.9148254395,23.6941108704,18.4514293671,49.8976402283,35.1109390259,-0.1214027256,42.8898468018,46.7463417053,-3.6328561306,16.601940155,9.184466362
1.49743298808013E+018,34.7530441284,-11.8227519989,11.0699987411,50,40.0170249939,18.6096229553,31.8758926392,44.9148254395,23.6941108704,18.4514293671,49.8976402283,35.1109390259,-0.1214027256,43.5932350159,45.9203262329,-3.6328561306,16.601940155,9.184466362
1.49743298808943E+018,35.6365203857,-11.8227519989,11.0699987411,50,41.8277244568,17.7469806671,31.8758926392,44.9148254395,23.6941108704,21.3542823792,49.8976402283,36.6984367371,2.0051136017,43.5932350159,45.0943069458,-3.6328561306,16.601940155,9.184466362
1.49743298809873E+018,36.5200042725,-11.8227519989,11.0699987411,50,42.7330703735,17.7469806671,37.2547073364,44.9148254395,23.6941108704,22.8057136536,49.8976402283,36.6984367371,2.0051136017,43.5932350159,44.6813011169,-3.6328561306,16.601940155,9.184466362
1.49743298810801E+018,38.2869567871,-11.8227519989,11.0699987411,50,42.7330703735,17.7469806671,37.2547073364,44.9148254395,23.6941108704,24.257144928,49.8976402283,36.6984367371,3.0683717728,43.5932350159,44.6813011169,-3.6328561306,16.601940155,9.184466362
1.49743298811726E+018,39.1704330444,-10.7042255402,11.0699987411,50,43.6384048462,17.7469806671,37.2547073364,46.5476875305,32.6588134766,25.7085762024,51.5601768494,37.4921875,4.1316218376,43.5932350159,43.8552856445,-3.6328561306,16.601940155,9.184466362
1.49743298812654E+018,40.0539169312,-10.1449584961,11.0699987411,50,43.6384048462,17.7469806671,37.2547073364,46.5476875305,32.6588134766,27.1599979401,51.5601768494,37.4921875,4.1316218376,43.5932350159,43.5455284119,-3.6328561306,16.601940155,9.184466362
1.49743298813575E+018,41.8208694458,-9.585691452,11.0699987411,50,44.5437545776,17.7469806671,37.2547073364,46.5476875305,32.6588134766,27.1599979401,52.3914489746,38.2859382629,5.1948800087,45,43.5455284119,-3.6328561306,16.601940155,9.9735927582
1.49743298814493E+018,43.5878295898,-9.585691452,11.0699987411,50,45.4491043091,19.4722652435,37.2547073364,47.3641052246,29.670583725,28.6114292145,52.3914489746,38.2859382629,5.1948800087,45.7033882141,43.5455284119,-3.6328561306,16.601940155,9.9735927582
1.49743298815413E+018,43.5878295898,-9.026424408,11.0699987411,50,45.4491043091,19.4722652435,37.2547073364,47.3641052246,29.670583725,28.6114292145,53.2227249146,38.2859382629,6.2581381798,45.7033882141,43.5455284119,-3.6328561306,16.601940155,9.9735927582
1.49743298816335E+018,44.2504348755,-9.026424408,11.0699987411,50,46.3544502258,20.3349094391,37.2547073364,48.1805343628,29.670583725,30.0628604889,53.2227249146,38.2859382629,6.2581381798,45.7033882141,42.3065032959,-3.6328561306,16.601940155,9.9735927582
1.49743298817271E+018,44.2504348755,-9.026424408,11.0699987411,50,47.2597999573,20.3349094391,37.2547073364,48.1805343628,29.670583725,31.5142822266,54.0539970398,38.2859382629,7.3213963509,45.7033882141,42.3065032959,-3.6328561306,16.601940155,9.9735927582
1.49743298818189E+018,45.1339187622,-9.026424408,11.0699987411,50,47.2597999573,21.1975460052,37.2547073364,48.996963501,29.670583725,32.965713501,54.8852729797,38.2859382629,7.3213963509,45.7033882141,42.3065032959,-5.0842876434,16.601940155,9.9735927582
1.49743298819118E+018,46.0173873901,-9.026424408,11.0699987411,50,48.165145874,21.1975460052,42.633518219,48.996963501,23.6941108704,32.965713501,54.8852729797,38.2859382629,7.3213963509,45.7033882141,42.7195129395,-5.6285719872,16.601940155,9.9735927582
1.49743298820043E+018,46.0173873901,-9.026424408,11.0699987411,50,49.0704956055,21.1975460052,42.633518219,49.8133964539,20.7058811188,34.4171447754,55.7165489197,38.2859382629,7.3213963509,45.7033882141,43.132522583,-5.6285719872,16.601940155,9.9735927582
1.49743298820975E+018,45.1339187622,-9.026424408,11.0699987411,50,49.0704956055,21.1975460052,45.3229370117,49.8133964539,17.7176399231,35.8685760498,56.5478210449,38.2859382629,7.3213963509,46.4067726135,42.7195129395,-6.3542876244,16.601940155,9.9735927582
1.49743298821908E+018,44.2504348755,-9.026424408,11.0699987411,50,49.9758453369,21.1975460052,45.3229370117,50.629825592,17.7176399231,37.3199958801,56.5478210449,38.2859382629,9.4479045868,46.4067726135,42.7195129395,-6.3542876244,16.601940155,9.9735927582
1.4974329882284E+018,45.1339187622,-9.026424408,11.0699987411,50,49.9758453369,21.1975460052,45.3229370117,51.4462547302,14.7294082642,37.3199958801,57.1712684631,38.2859382629,9.4479045868,46.4067726135,42.7195129395,-6.3542876244,16.601940155,9.9735927582
1.49743298823782E+018,46.0173873901,-10.7042255402,13.3560037613,50,49.9758453369,21.1975460052,45.3229370117,52.2626838684,17.7176399231,37.3199958801,58.0025405884,38.2859382629,10.5111627579,47.813533783,42.7195129395,-6.3542876244,16.601940155,10.3681564331
1.49743298824705E+018,46.0173873901,-11.8227519989,13.3560037613,50,49.9758453369,21.1975460052,45.3229370117,53.0791053772,17.7176399231,37.3199958801,58.0025405884,38.2859382629,10.5111627579,47.813533783,43.5455284119,-6.3542876244,16.601940155,10.3681564331
1.49743298825635E+018,46.9008712769,-12.941286087,13.3560037613,50,49.9758453369,21.1975460052,45.3229370117,53.0791053772,17.7176399231,37.3199958801,58.0025405884,38.2859382629,10.5111627579,47.813533783,43.8552856445,-5.0842876434,16.601940155,10.3681564331
1.49743298826563E+018,46.9008712769,-12.941286087,13.3560037613,50,49.9758453369,21.1975460052,45.3229370117,53.8955345154,17.7176399231,34.4171447754,58.0025405884,38.2859382629,10.5111627579,47.813533783,44.6813011169,-5.0842876434,16.601940155,10.3681564331
1.49743298827489E+018,47.7843475342,-13.5005531311,13.3560037613,50,49.9758453369,22.0601902008,45.3229370117,54.7119636536,17.7176399231,32.965713501,58.0025405884,38.2859382629,10.5111627579,47.813533783,45.0943069458,-5.0842876434,16.601940155,10.3681564331
1.49743298828414E+018,47.7843475342,-14.0598211288,13.3560037613,50,49.9758453369,22.0601902008,45.3229370117,54.7119636536,17.7176399231,32.965713501,58.0025405884,38.2859382629,10.5111627579,47.813533783,45.0943069458,-4.3585720062,16.601940155,10.7627191544
1.4974329882934E+018,47.7843475342,-14.6190881729,11.0699987411,50,49.9758453369,22.0601902008,45.3229370117,55.5283927917,17.7176399231,34.4171447754,58.0025405884,38.2859382629,10.5111627579,47.813533783,44.6813011169,-3.6328561306,16.601940155,10.7627191544
1.4974329883027E+018,47.7843475342,-14.6190881729,11.0699987411,50,49.9758453369,22.0601902008,45.3229370117,56.3448257446,17.7176399231,32.965713501,58.0025405884,38.2859382629,10.5111627579,47.813533783,45.0943069458,-3.6328561306,16.601940155,10.7627191544
1.49743298831196E+018,46.0173873901,-14.6190881729,11.0699987411,50,49.9758453369,22.0601902008,45.3229370117,56.3448257446,17.7176399231,32.965713501,58.0025405884,38.2859382629,10.5111627579,49.2203063965,45.9203262329,-3.6328561306,16.601940155,10.7627191544
1.49743298832115E+018,46.0173873901,-14.6190881729,11.0699987411,50,49.9758453369,22.0601902008,45.3229370117,56.9571495056,17.7176399231,31.5142822266,58.8338165283,38.2859382629,10.5111627579,49.2203063965,46.3333358765,-3.6328561306,16.601940155,10.7627191544
1.49743298833036E+018,46.9008712769,-15.7376146317,11.0699987411,50,49.9758453369,22.0601902008,45.3229370117,56.9571495056,17.7176399231,31.5142822266,58.8338165283,38.2859382629,10.5111627579,49.2203063965,45.9203262329,-3.6328561306,16.601940155,11.1572828293
1.49743298833965E+018,48.6678314209,-15.7376146317,11.0699987411,50,49.9758453369,22.0601902008,45.3229370117,56.9571495056,17.7176399231,31.5142822266,58.8338165283,38.2859382629,10.5111627579,49.9236946106,45.5073165894,-3.6328561306,16.601940155,11.1572828293
1.4974329883488E+018,50.4347839355,-15.7376146317,6.4980072975,50,49.9758453369,22.0601902008,42.633518219,56.9571495056,23.6941108704,31.5142822266,58.8338165283,38.2859382629,10.5111627579,49.9236946106,45.0943069458,-3.6328561306,16.601940155,11.1572828293
1.49743298835797E+018,52.2017440796,-15.7376146317,4.7835125923,50,49.9758453369,22.0601902008,42.633518219,56.9571495056,23.6941108704,31.5142822266,58.8338165283,39.8734359741,10.5111627579,49.9236946106,44.2682914734,-3.6328561306,16.601940155,11.1572828293
1.49743298836718E+018,53.0852203369,-15.7376146317,4.7835125923,50,49.9758453369,22.0601902008,42.633518219,56.9571495056,26.682352066,31.5142822266,58.8338165283,40.6671905518,10.5111627579,49.9236946106,43.8552856445,-3.6328561306,16.601940155,11.1572828293
1.49743298837638E+018,53.9686889648,-15.7376146317,2.497508049,50,49.9758453369,22.0601902008,42.633518219,56.9571495056,26.682352066,31.5142822266,58.8338165283,41.4609413147,10.5111627579,49.9236946106,43.132522583,-3.6328561306,16.601940155,11.1572828293
1.49743298838569E+018,55.7356491089,-15.7376146317,0.2115036845,50,49.9758453369,22.0601902008,42.633518219,56.9571495056,26.682352066,31.5142822266,58.8338165283,42.2546844482,10.5111627579,49.9236946106,42.3065032959,-3.6328561306,16.601940155,11.1572828293
1.49743298839501E+018,56.6191329956,-14.6190881729,0.2115036845,50,49.9758453369,22.0601902008,42.633518219,56.9571495056,26.682352066,31.5142822266,58.8338165283,43.0484390259,12.6376714706,49.9236946106,41.4804878235,-3.6328561306,16.601940155,11.1572828293
1.49743298840434E+018,58.165222168,-14.6190881729,-2.0745007992,50,49.9758453369,21.1975460052,42.633518219,56.3448257446,26.682352066,34.4171447754,58.8338165283,44.4375,12.6376714706,51.1546211243,40.6544723511,-5.0842876434,16.601940155,11.1572828293
1.4974329884136E+018,59.0486907959,-14.0598211288,-2.0745007992,50,49.9758453369,21.1975460052,42.633518219,56.3448257446,32.6588134766,34.4171447754,58.8338165283,45.2312507629,12.6376714706,51.1546211243,39.828453064,-5.6285719872,16.601940155,10.7627191544
1.49743298842284E+018,60.8156509399,-13.5005531311,-4.3604879379,50,49.9758453369,21.1975460052,42.633518219,56.3448257446,32.6588134766,35.8685760498,58.8338165283,46.0249977112,13.7009296417,51.8579978943,38.5894317627,-5.6285719872,16.601940155,10.7627191544
1.49743298843199E+018,61.6991348267,-12.941286087,-4.3604879379,50,49.9758453369,21.1975460052,42.633518219,56.3448257446,32.6588134766,37.3199958801,58.8338165283,47.6124992371,13.7009296417,51.8579978943,37.3504066467,-6.3542876244,16.601940155,10.7627191544
1.49743298844123E+018,62.582611084,-12.941286087,-6.6464924812,50,49.9758453369,21.1975460052,42.633518219,56.3448257446,35.6470565796,38.4085769653,58.8338165283,49.1999969482,14.7641878128,52.5613822937,36.2146339417,-5.6285719872,16.601940155,10.7627191544
1.4974329884504E+018,63.4660949707,-12.382019043,-6.6464924812,50,51.7865257263,21.1975460052,42.633518219,56.3448257446,37.8882369995,39.8599967957,58.8338165283,49.9937477112,15.8274374008,53.2647705078,34.9756088257,-3.6328561306,15.8372077942,9.9735927582
1.49743298845964E+018,64.349571228,-12.382019043,-8.9324970245,50,51.7865257263,21.1975460052,42.633518219,56.3448257446,37.8882369995,41.3114280701,58.8338165283,51.5812492371,16.6248855591,53.9681549072,33.7365875244,-1.4557139874,15.8372077942,9.9735927582
1.49743298846879E+018,64.349571228,-12.941286087,-15.7904930115,50,52.4655418396,21.1975460052,42.633518219,56.3448257446,40.8764648438,42.7628593445,60.4963645935,53.1687507629,17.6881351471,54.6715431213,32.4975624084,0.7214280963,15.8372077942,9.5790300369
1.497432988478E+018,64.349571228,-13.5005531311,-22.6484889984,50,52.4655418396,21.1975460052,42.633518219,56.3448257446,40.8764648438,42.7628593445,62.1589012146,54.7562484741,17.6881351471,55.3749275208,31.6715431213,2.8985700607,15.8372077942,9.5790300369
1.49743298848722E+018,64.349571228,-14.0598211288,-31.2209968567,50,52.4655418396,21.1975460052,42.633518219,56.3448257446,40.8764648438,45.6657142639,62.9901771545,54.7562484741,19.8146514893,56.7816886902,30.8455295563,5.075712204,14.498922348,9.5790300369
1.49743298849644E+018,64.349571228,-14.6190881729,-38.078994751,50,52.4655418396,21.1975460052,42.633518219,56.3448257446,40.8764648438,47.1171455383,63.8214492798,53.9625015259,19.8146514893,56.7816886902,29.296749115,5.8014278412,14.498922348,9.5790300369
1.49743298850569E+018,66.1165161133,-15.1783466339,-44.9369888306,50,52.4655418396,21.1975460052,42.633518219,57.7735671997,40.8764648438,48.5685768127,64.6527252197,53.1687507629,20.877910614,57.4850769043,28.8837413788,7.0714278221,14.498922348,9.5790300369
1.49743298851477E+018,67,-15.7376146317,-49.5089797974,50,52.4655418396,21.1975460052,42.633518219,57.7735671997,40.8764648438,51.4714279175,65.4840011597,52.375,21.941160202,58.1884613037,27.6447162628,8.5228595734,14.498922348,9.5790300369
1.49743298852397E+018,67.8834762573,-16.8561477661,-54.0809898376,50,54.2762374878,21.1975460052,42.633518219,57.7735671997,40.8764648438,52.9228591919,66.3152770996,51.5812492371,24.0676765442,58.8918457031,27.2317085266,9.9742860794,14.498922348,9.5790300369
1.49743298853316E+018,68.7669525146,-17.2756004333,-56.3669929504,50,55.1815872192,21.1975460052,42.633518219,58.5900001526,40.8764648438,54.374294281,67.1465454102,50.7875022888,24.0676765442,58.8918457031,26.4056911469,9.9742860794,14.498922348,9.5790300369
1.49743298854237E+018,68.7669525146,-17.8348693848,-58.6529808044,50,54.2762374878,21.1975460052,42.633518219,58.5900001526,40.8764648438,55.8257141113,67.9778213501,49.9937477112,25.1309337616,59.5952339172,25.992685318,10.7000017166,14.498922348,9.5790300369
1.49743298855151E+018,69.6504364014,-18.3941268921,-60.9389877319,50,55.1815872192,21.1975460052,45.3229370117,58.5900001526,40.8764648438,55.8257141113,68.8090820312,49.1999969482,25.1309337616,60.2986183167,25.5796756744,11.4257173538,14.498922348,9.5790300369
1.49743298856068E+018,69.6504364014,-18.3941268921,-60.9389877319,50,55.1815872192,21.1975460052,45.3229370117,58.5900001526,40.8764648438,57.2771453857,68.8090820312,49.1999969482,25.1309337616,60.2986183167,25.5796756744,11.4257173538,12.9694671631,9.5790300369
1.49743298856992E+018,69.6504364014,-18.9533958435,-63.2249908447,50,55.1815872192,21.1975460052,45.3229370117,58.5900001526,40.8764648438,57.2771453857,68.8090820312,49.1999969482,25.1309337616,60.2986183167,25.1666660309,10.7000017166,13.7342014313,9.5790300369
1.49743298857925E+018,69.6504364014,-18.9533958435,-63.2249908447,50,55.1815872192,21.1975460052,45.3229370117,58.5900001526,40.8764648438,58.7285766602,68.8090820312,49.1999969482,25.1309337616,60.2986183167,24.753660202,10.7000017166,12.9694671631,9.5790300369
1.49743298858859E+018,71.1965179443,-18.9533958435,-63.2249908447,50,55.1815872192,21.1975460052,45.3229370117,58.5900001526,40.8764648438,60.1800079346,68.8090820312,49.1999969482,27.2574424744,60.2986183167,24.3406524658,9.9742860794,12.9694671631,9.5790300369
1.49743298859784E+018,71.1965179443,-18.9533958435,-63.2249908447,50,56.9922714233,21.1975460052,45.3229370117,58.5900001526,40.8764648438,61.2685775757,68.8090820312,49.1999969482,28.3207015991,60.2986183167,24.0308952332,8.5228595734,12.9694671631,9.5790300369
1.49743298860714E+018,72.0800018311,-20.6311950684,-63.2249908447,50,56.9922714233,21.1975460052,45.3229370117,58.5900001526,40.8764648438,62.7200088501,70.2638168335,49.1999969482,30.4472084045,60.2986183167,23.2048778534,7.0714278221,12.9694671631,9.5790300369
1.49743298861632E+018,72.9634857178,-21.1904640198,-63.2249908447,50,57.8976173401,21.1975460052,45.3229370117,58.5900001526,40.8764648438,64.1714324951,70.2638168335,49.1999969482,32.5737266541,61.0020065308,22.7918682098,5.8014278412,12.9694671631,8.7899036408
1.49743298862552E+018,73.8469543457,-22.3089981079,-63.2249908447,50,57.8976173401,21.1975460052,45.3229370117,58.5900001526,40.8764648438,65.6228637695,71.0950927734,49.1999969482,33.3711662292,61.0020065308,21.9658565521,5.075712204,12.9694671631,8.7899036408
1.49743298863474E+018,73.8469543457,-22.3089981079,-58.6529808044,50,58.8029670715,21.1975460052,50.0294036865,58.5900001526,40.8764648438,67.0742950439,70.2638168335,49.1999969482,35.4976730347,61.0020065308,21.5528469086,6.3457121849,12.9694671631,8.7899036408
1.49743298864391E+018,74.7304382324,-23.4275245667,-58.6529808044,50,58.8029670715,21.1975460052,50.0294036865,58.5900001526,40.8764648438,68.5257263184,71.0950927734,49.1999969482,36.5609321594,61.0020065308,20.7268295288,7.7971439362,12.9694671631,8.7899036408
1.49743298865312E+018,75.6139221191,-23.4275245667,-58.6529808044,50,58.8029670715,21.1975460052,50.0294036865,58.5900001526,37.8882369995,69.977142334,70.2638168335,49.1999969482,37.6241912842,61.0020065308,19.900812149,9.2485704422,12.9694671631,8.7899036408
1.49743298866234E+018,75.6139221191,-23.4275245667,-60.9389877319,50,58.8029670715,21.1975460052,50.0294036865,58.5900001526,37.8882369995,69.977142334,70.2638168335,49.1999969482,38.6874465942,61.0020065308,19.0748004913,11.4257173538,12.9694671631,8.7899036408
1.49743298867151E+018,76.4973907471,-23.4275245667,-60.9389877319,50,58.8029670715,21.1975460052,50.0294036865,58.5900001526,37.8882369995,71.4285736084,69.6403579712,49.1999969482,39.7506980896,61.0020065308,18.6617908478,12.8771438599,12.9694671631,8.7899036408
1.49743298868087E+018,76.4973907471,-23.4275245667,-60.9389877319,50,58.8029670715,21.1975460052,50.0294036865,58.5900001526,37.8882369995,71.4285736084,69.6403579712,50.7875022888,39.7506980896,61.0020065308,17.835773468,14.3285703659,11.4400024414,8.7899036408
1.4974329886902E+018,77.380859375,-23.4275245667,-60.9389877319,50,58.8029670715,19.4722652435,50.0294036865,58.5900001526,37.8882369995,71.4285736084,68.8090820312,50.7875022888,39.7506980896,61.0020065308,17.835773468,15.7800016403,11.4400024414,8.7899036408
1.49743298869951E+018,77.380859375,-23.4275245667,-60.9389877319,50,58.8029670715,19.4722652435,50.0294036865,58.5900001526,37.8882369995,71.4285736084,67.9778213501,50.7875022888,39.7506980896,61.0020065308,17.5260162354,17.2314281464,11.4400024414,8.7899036408
1.49743298870889E+018,78.2643432617,-23.4275245667,-60.9389877319,50,58.8029670715,18.6096229553,50.0294036865,58.5900001526,37.8882369995,71.4285736084,67.9778213501,50.7875022888,39.7506980896,59.5952339172,17.5260162354,17.7757167816,11.4400024414,8.7899036408
1.49743298871817E+018,79.1478271484,-22.3089981079,-60.9389877319,50,58.8029670715,18.6096229553,50.0294036865,56.9571495056,37.8882369995,71.4285736084,67.1465454102,50.7875022888,39.7506980896,59.5952339172,17.1130104065,18.5014286041,11.4400024414,8.4939804077
1.49743298872745E+018,79.1478271484,-22.3089981079,-56.3669929504,50,58.8029670715,18.6096229553,50.0294036865,56.9571495056,37.8882369995,71.4285736084,67.1465454102,50.7875022888,39.7506980896,59.5952339172,17.1130104065,19.2271442413,11.4400024414,8.4939804077
1.49743298873663E+018,80.0313110352,-21.7497310638,-54.0809898376,50,58.8029670715,18.6096229553,50.0294036865,57.7735671997,37.8882369995,71.4285736084,66.3152770996,50.7875022888,41.8772163391,58.8918457031,17.1130104065,19.2271442413,11.4400024414,8.4939804077
1.49743298874591E+018,80.0313110352,-20.6311950684,-49.5089797974,50,58.8029670715,18.6096229553,50.0294036865,57.7735671997,37.8882369995,74.3314437866,66.3152770996,50.7875022888,41.8772163391,58.8918457031,17.1130104065,19.9528598785,11.4400024414,8.4939804077
1.49743298875512E+018,80.0313110352,-20.0719299316,-44.9369888306,50,58.8029670715,18.6096229553,50.0294036865,57.7735671997,37.8882369995,74.3314437866,65.4840011597,50.7875022888,41.8772163391,58.1884613037,17.1130104065,19.9528598785,11.4400024414,8.4939804077
1.49743298876438E+018,80.0313110352,-18.9533958435,-38.078994751,50,58.8029670715,18.6096229553,50.0294036865,57.7735671997,37.8882369995,72.8800048828,65.4840011597,50.7875022888,41.8772163391,58.1884613037,17.1130104065,20.6785755157,11.4400024414,8.4939804077
1.49743298877373E+018,78.2643432617,-17.8348693848,-29.5064849854,50,58.8029670715,18.6096229553,50.0294036865,57.7735671997,37.8882369995,72.8800048828,64.6527252197,50.7875022888,41.8772163391,57.4850769043,17.835773468,20.6785755157,11.4400024414,8.4939804077
1.49743298878293E+018,76.4973907471,-16.2968826294,-24.9344940186,50,58.8029670715,20.3349094391,50.0294036865,57.7735671997,32.6588134766,72.8800048828,63.8214492798,50.7875022888,41.8772163391,56.7816886902,17.835773468,21.4042854309,10.6752700806,8.4939804077
1.49743298879207E+018,74.7304382324,-15.7376146317,-18.0764980316,50,58.8029670715,20.3349094391,50.0294036865,57.7735671997,32.6588134766,72.8800048828,62.9901771545,52.375,41.8772163391,56.7816886902,18.2487812042,22.1300010681,10.6752700806,8.4939804077
1.49743298880131E+018,72.0800018311,-16.2968826294,-15.7904930115,50,58.8029670715,20.3349094391,50.0294036865,57.7735671997,32.6588134766,72.8800048828,62.9901771545,53.1687507629,41.8772163391,56.0783119202,18.2487812042,21.4042854309,10.6752700806,8.7899036408
1.49743298881061E+018,70.5339202881,-16.2968826294,-13.504488945,50,58.8029670715,20.3349094391,50.0294036865,57.7735671997,32.6588134766,72.8800048828,62.9901771545,53.9625015259,41.8772163391,56.0783119202,18.2487812042,21.4042854309,10.6752700806,8.7899036408
1.4974329888198E+018,69.6504364014,-16.8561477661,-11.2184839249,50,58.8029670715,20.3349094391,50.0294036865,57.7735671997,32.6588134766,72.8800048828,62.9901771545,53.9625015259,41.8772163391,56.0783119202,18.2487812042,20.6785755157,10.6752700806,8.7899036408
1.49743298882906E+018,67.8834762573,-16.8561477661,-8.9324970245,50,58.8029670715,20.3349094391,50.0294036865,57.7735671997,32.6588134766,72.8800048828,62.9901771545,53.9625015259,41.8772163391,56.0783119202,18.2487812042,20.6785755157,10.6752700806,8.7899036408
1.49743298883838E+018,67,-17.2756004333,-4.3604879379,50,58.8029670715,20.3349094391,50.0294036865,57.7735671997,32.6588134766,71.4285736084,62.9901771545,53.9625015259,41.8772163391,56.0783119202,18.2487812042,20.6785755157,11.4400024414,8.7899036408
1.49743298884756E+018,65.233039856,-17.2756004333,-2.0745007992,50,58.8029670715,22.0601902008,50.0294036865,57.7735671997,26.682352066,71.4285736084,62.9901771545,53.9625015259,41.8772163391,56.0783119202,18.2487812042,20.6785755157,11.4400024414,8.7899036408
1.49743298885684E+018,63.4660949707,-17.8348693848,0.2115036845,50,58.8029670715,22.0601902008,50.0294036865,57.7735671997,26.682352066,71.4285736084,62.9901771545,53.9625015259,41.8772163391,56.0783119202,18.2487812042,19.2271442413,11.4400024414,8.7899036408
1.49743298886614E+018,61.6991348267,-17.8348693848,2.497508049,50,58.8029670715,22.0601902008,50.0294036865,57.7735671997,23.6941108704,71.4285736084,62.9901771545,53.9625015259,41.8772163391,56.0783119202,18.2487812042,17.7757167816,11.4400024414,8.7899036408
1.49743298887544E+018,59.0486907959,-18.3941268921,6.4980072975,50,58.8029670715,22.0601902008,50.0294036865,57.7735671997,23.6941108704,68.5257263184,62.9901771545,52.375,41.8772163391,56.0783119202,18.2487812042,17.2314281464,11.4400024414,8.7899036408
1.49743298888475E+018,57.2817459106,-18.3941268921,8.7840118408,50,58.8029670715,22.0601902008,50.0294036865,57.7735671997,20.7058811188,68.5257263184,64.6527252197,51.5812492371,39.7506980896,56.0783119202,19.0748004913,15.7800016403,11.4400024414,8.7899036408
1.49743298889407E+018,53.0852203369,-18.3941268921,13.3560037613,50,58.8029670715,22.0601902008,50.0294036865,57.7735671997,17.7176399231,68.5257263184,64.6527252197,51.5812492371,39.7506980896,56.7816886902,19.4878082275,14.3285703659,11.4400024414,8.7899036408
1.49743298890326E+018,49.5513076782,-18.3941268921,15.6420078278,50,58.8029670715,22.0601902008,50.0294036865,57.7735671997,17.7176399231,67.0742950439,64.6527252197,51.5812492371,38.6874465942,56.7816886902,19.900812149,12.1514282227,11.4400024414,8.4939804077
1.4974329889125E+018,47.7843475342,-18.3941268921,15.6420078278,50,58.8029670715,22.0601902008,50.0294036865,57.7735671997,17.7176399231,67.0742950439,65.4840011597,51.5812492371,38.6874465942,56.7816886902,20.7268295288,10.7000017166,11.4400024414,8.4939804077
1.49743298892166E+018,47.7843475342,-18.3941268921,17.9280128479,50,58.8029670715,22.0601902008,52.7188224792,57.7735671997,17.7176399231,65.6228637695,65.4840011597,49.9937477112,37.6241912842,56.7816886902,21.1398391724,8.5228595734,11.4400024414,8.4939804077
1.49743298893079E+018,46.9008712769,-18.3941268921,17.9280128479,50,58.8029670715,22.0601902008,52.7188224792,57.7735671997,17.7176399231,64.1714324951,65.4840011597,49.9937477112,36.5609321594,56.7816886902,21.5528469086,7.7971439362,11.4400024414,8.4939804077
1.49743298894001E+018,46.9008712769,-18.3941268921,17.9280128479,50,58.8029670715,22.0601902008,52.7188224792,57.7735671997,17.7176399231,64.1714324951,65.4840011597,49.9937477112,35.4976730347,56.7816886902,22.3788661957,7.0714278221,11.4400024414,8.4939804077
1.49743298894918E+018,46.9008712769,-18.3941268921,17.9280128479,50,58.8029670715,22.0601902008,52.7188224792,57.7735671997,17.7176399231,64.1714324951,65.4840011597,49.9937477112,35.4976730347,56.7816886902,23.2048778534,7.0714278221,11.4400024414,8.4939804077
1.49743298895845E+018,46.9008712769,-18.3941268921,17.9280128479,50,58.8029670715,22.0601902008,52.7188224792,57.7735671997,17.7176399231,64.1714324951,65.4840011597,49.9937477112,33.3711662292,56.7816886902,24.0308952332,7.0714278221,11.4400024414,8.4939804077
1.49743298896775E+018,46.9008712769,-18.3941268921,17.9280128479,50,57.8976173401,22.0601902008,52.7188224792,57.7735671997,17.7176399231,61.2685775757,65.4840011597,49.9937477112,32.5737266541,56.7816886902,24.753660202,7.0714278221,11.4400024414,8.4939804077
1.49743298897704E+018,46.9008712769,-18.3941268921,17.9280128479,50,57.8976173401,22.0601902008,52.7188224792,57.7735671997,17.7176399231,61.2685775757,65.4840011597,49.9937477112,31.5104675293,56.7816886902,25.5796756744,7.0714278221,11.4400024414,9.184466362
1.49743298898629E+018,45.1339187622,-18.3941268921,13.3560037613,50,57.8976173401,22.0601902008,52.7188224792,57.7735671997,11.7411689758,60.1800079346,65.4840011597,49.9937477112,30.4472084045,56.7816886902,26.4056911469,5.8014278412,11.4400024414,9.184466362
1.49743298899549E+018,43.5878295898,-18.3941268921,13.3560037613,50,57.8976173401,22.0601902008,52.7188224792,57.7735671997,11.7411689758,58.7285766602,65.4840011597,49.9937477112,29.3839511871,56.7816886902,26.8186988831,5.075712204,11.4400024414,9.184466362
1.49743298900477E+018,42.7043533325,-18.3941268921,13.3560037613,50,57.8976173401,22.0601902008,52.7188224792,57.7735671997,11.7411689758,58.7285766602,65.4840011597,48.40625,29.3839511871,56.7816886902,27.6447162628,4.350001812,12.2047348022,9.5790300369
1.49743298901401E+018,40.9373931885,-17.2756004333,13.3560037613,50,56.9922714233,22.0601902008,52.7188224792,57.7735671997,8.7529258728,57.2771453857,65.4840011597,48.40625,28.3207015991,56.7816886902,28.0577220917,3.6242859364,12.2047348022,9.5790300369
1.49743298902327E+018,39.1704330444,-16.8561477661,13.3560037613,50,56.9922714233,22.0601902008,52.7188224792,57.7735671997,8.7529258728,55.8257141113,65.4840011597,48.40625,27.2574424744,56.7816886902,28.8837413788,2.8985700607,12.2047348022,9.5790300369
1.49743298903258E+018,37.4034805298,-15.7376146317,13.3560037613,50,56.9922714233,22.0601902008,52.7188224792,57.7735671997,5.764705658,55.8257141113,65.4840011597,48.40625,27.2574424744,55.3749275208,29.296749115,2.8985700607,12.2047348022,9.5790300369
1.4974329890419E+018,35.6365203857,-15.1783466339,13.3560037613,50,56.9922714233,22.0601902008,52.7188224792,57.7735671997,5.764705658,54.374294281,65.4840011597,48.40625,26.194185257,55.3749275208,29.7097549438,2.8985700607,12.2047348022,9.5790300369
1.49743298905116E+018,33.8695678711,-14.0598211288,13.3560037613,50,55.1815872192,22.0601902008,52.7188224792,57.7735671997,5.764705658,52.9228591919,63.8214492798,48.40625,25.1309337616,54.6715431213,30.1227645874,2.8985700607,12.2047348022,9.5790300369
1.49743298906053E+018,33.8695678711,-12.941286087,6.4980072975,50,55.1815872192,22.922832489,52.7188224792,57.7735671997,5.764705658,52.9228591919,63.8214492798,49.9937477112,24.0676765442,54.6715431213,30.1227645874,4.350001812,12.2047348022,9.5790300369
1.49743298906979E+018,32.9860916138,-11.8227519989,2.497508049,50,55.1815872192,22.922832489,52.7188224792,58.5900001526,5.764705658,51.4714279175,63.8214492798,49.9937477112,23.0044174194,53.9681549072,30.1227645874,4.350001812,12.2047348022,9.9735927582
1.49743298907907E+018,32.9860916138,-10.7042255402,0.2115036845,50,55.1815872192,22.922832489,52.7188224792,58.5900001526,5.764705658,51.4714279175,62.9901771545,50.7875022888,23.0044174194,53.9681549072,30.1227645874,4.350001812,12.9694671631,9.9735927582
1.49743298908832E+018,32.9860916138,-10.1449584961,-4.3604879379,50,55.1815872192,22.922832489,52.7188224792,56.9571495056,5.764705658,51.4714279175,62.1589012146,50.7875022888,23.0044174194,53.2647705078,30.1227645874,4.350001812,12.9694671631,9.9735927582
1.49743298909752E+018,32.9860916138,-9.585691452,-6.6464924812,50,55.1815872192,22.922832489,52.7188224792,56.9571495056,5.764705658,51.4714279175,62.1589012146,51.5812492371,23.0044174194,52.5613822937,29.296749115,4.350001812,12.9694671631,9.9735927582
1.49743298910672E+018,32.9860916138,-8.4671573639,-8.9324970245,50,55.1815872192,22.922832489,52.7188224792,56.3448257446,5.764705658,51.4714279175,61.3276405334,52.375,23.0044174194,52.5613822937,28.8837413788,4.350001812,12.9694671631,9.9735927582
1.497432989116E+018,31.2191314697,-8.0477046967,-11.2184839249,50,55.1815872192,22.922832489,50.0294036865,56.3448257446,8.7529258728,51.4714279175,61.3276405334,52.375,23.0044174194,52.5613822937,28.4707317352,5.8014278412,12.9694671631,9.9735927582
1.49743298912528E+018,29.6730422974,-7.488445282,-11.2184839249,50,55.1815872192,22.922832489,50.0294036865,55.5283927917,8.7529258728,51.4714279175,61.3276405334,52.375,23.0044174194,52.5613822937,28.4707317352,5.8014278412,12.9694671631,9.9735927582
1.49743298913448E+018,27.9060897827,-6.9291782379,-11.2184839249,50,55.1815872192,22.922832489,50.0294036865,54.7119636536,8.7529258728,51.4714279175,61.3276405334,52.375,23.0044174194,52.5613822937,28.4707317352,6.3457121849,12.9694671631,9.9735927582
1.49743298914375E+018,26.1391296387,-6.9291782379,-11.2184839249,50,54.2762374878,22.922832489,50.0294036865,53.8955345154,8.7529258728,51.4714279175,61.3276405334,52.375,20.877910614,52.5613822937,28.4707317352,7.0714278221,12.9694671631,9.9735927582
1.49743298915305E+018,25.2556533813,-6.9291782379,-11.2184839249,50,54.2762374878,22.922832489,50.0294036865,53.8955345154,8.7529258728,48.5685768127,61.3276405334,52.375,18.7513942719,52.5613822937,29.296749115,7.0714278221,11.4400024414,9.9735927582
1.4974329891623E+018,25.2556533813,-6.9291782379,-11.2184839249,50,54.2762374878,22.922832489,50.0294036865,53.0791053772,8.7529258728,47.1171455383,61.3276405334,52.375,17.6881351471,52.5613822937,30.1227645874,6.3457121849,11.4400024414,9.9735927582
1.49743298917159E+018,24.372177124,-6.9291782379,-11.2184839249,50,54.2762374878,22.922832489,47.3399887085,52.2626838684,8.7529258728,45.6657142639,61.3276405334,52.375,16.6248855591,52.5613822937,30.8455295563,5.8014278412,11.4400024414,9.9735927582
1.49743298918089E+018,24.372177124,-6.9291782379,-11.2184839249,50,52.4655418396,22.922832489,47.3399887085,51.4462547302,14.7294082642,44.2142944336,59.6650924683,52.375,14.7641878128,52.5613822937,31.6715431213,4.350001812,11.4400024414,9.184466362
1.49743298919013E+018,23.4886932373,-8.0477046967,-11.2184839249,50,52.4655418396,22.922832489,47.3399887085,49.8133964539,14.7294082642,42.7628593445,58.8338165283,52.375,13.7009296417,52.5613822937,32.4975624084,3.6242859364,11.4400024414,9.184466362
1.49743298919938E+018,22.6052246094,-8.0477046967,-11.2184839249,50,52.4655418396,22.922832489,47.3399887085,48.996963501,17.7176399231,41.3114280701,58.8338165283,52.375,12.6376714706,52.5613822937,33.3235778809,2.8985700607,11.4400024414,9.184466362
1.49743298920866E+018,22.6052246094,-8.0477046967,-15.7904930115,50,51.7865257263,22.922832489,42.633518219,48.996963501,17.7176399231,39.8599967957,58.8338165283,52.375,11.5744132996,51.1546211243,34.1495933533,2.8985700607,11.4400024414,9.184466362
1.49743298921785E+018,23.4886932373,-8.0477046967,-18.0764980316,50,51.7865257263,22.922832489,42.633518219,48.1805343628,17.7176399231,38.4085769653,58.8338165283,50.7875022888,10.5111627579,51.1546211243,34.1495933533,2.1728596687,11.4400024414,9.184466362
1.49743298922704E+018,25.2556533813,-8.0477046967,-22.6484889984,50,51.7865257263,22.922832489,42.633518219,48.1805343628,17.7176399231,38.4085769653,58.8338165283,50.7875022888,10.5111627579,51.1546211243,34.5626029968,2.8985700607,11.4400024414,9.184466362
1.49743298923633E+018,27.022605896,-8.0477046967,-27.2204971313,50,51.7865257263,22.922832489,42.633518219,48.1805343628,17.7176399231,38.4085769653,58.8338165283,49.9937477112,10.5111627579,51.1546211243,34.1495933533,2.8985700607,11.4400024414,9.184466362
1.49743298924561E+018,28.78956604,-8.0477046967,-31.2209968567,50,51.7865257263,22.922832489,42.633518219,48.1805343628,17.7176399231,38.4085769653,58.8338165283,49.9937477112,10.5111627579,51.1546211243,34.1495933533,2.8985700607,11.4400024414,9.184466362
1.49743298925492E+018,31.2191314697,-8.0477046967,-33.5069847107,50,51.7865257263,22.922832489,42.633518219,48.1805343628,17.7176399231,38.4085769653,58.8338165283,49.1999969482,10.5111627579,51.1546211243,34.1495933533,2.8985700607,12.9694671631,9.184466362
1.49743298926412E+018,34.7530441284,-8.0477046967,-31.2209968567,50,51.7865257263,22.922832489,42.633518219,48.1805343628,17.7176399231,38.4085769653,58.8338165283,49.1999969482,10.5111627579,51.1546211243,34.1495933533,5.075712204,12.9694671631,9.184466362
1.49743298927339E+018,38.2869567871,-6.9291782379,-31.2209968567,50,51.7865257263,21.1975460052,42.633518219,48.1805343628,17.7176399231,38.4085769653,58.8338165283,49.9937477112,10.5111627579,51.1546211243,34.1495933533,6.3457121849,12.9694671631,8.7899036408
1.49743298928256E+018,40.9373931885,-6.3699111939,-27.2204971313,50,51.7865257263,22.0601902008,42.633518219,48.1805343628,17.7176399231,38.4085769653,58.8338165283,50.7875022888,10.5111627579,51.1546211243,34.1495933533,7.0714278221,13.7342014313,8.7899036408
1.49743298929193E+018,41.8208694458,-6.3699111939,-27.2204971313,50,51.7865257263,21.1975460052,42.633518219,48.1805343628,23.6941108704,35.8685760498,58.8338165283,50.7875022888,8.3846464157,51.1546211243,34.1495933533,7.0714278221,13.7342014313,8.7899036408
1.49743298930119E+018,42.7043533325,-6.3699111939,-27.2204971313,50,51.7865257263,21.1975460052,42.633518219,48.1805343628,23.6941108704,34.4171447754,58.8338165283,51.5812492371,8.3846464157,51.1546211243,34.1495933533,7.0714278221,13.7342014313,8.7899036408
1.4974329893105E+018,42.7043533325,-6.3699111939,-27.2204971313,50,51.7865257263,21.1975460052,42.633518219,48.1805343628,26.682352066,32.965713501,58.8338165283,51.5812492371,7.3213963509,51.1546211243,35.3886184692,7.0714278221,13.7342014313,8.7899036408
1.49743298931991E+018,42.7043533325,-8.0477046967,-27.2204971313,50,51.7865257263,21.1975460052,37.2547073364,48.1805343628,26.682352066,32.965713501,58.8338165283,51.5812492371,7.3213963509,51.1546211243,35.8016281128,5.8014278412,13.7342014313,8.4939804077
1.4974329893292E+018,42.7043533325,-9.026424408,-22.6484889984,50,50.8811798096,21.1975460052,37.2547073364,48.1805343628,26.682352066,32.965713501,58.8338165283,51.5812492371,7.3213963509,51.1546211243,36.6276397705,5.075712204,13.7342014313,8.4939804077
1.49743298933861E+018,39.1704330444,-10.1449584961,-18.0764980316,50,50.8811798096,22.922832489,37.2547073364,49.8133964539,26.682352066,32.965713501,58.8338165283,51.5812492371,7.3213963509,51.1546211243,37.3504066467,4.350001812,13.7342014313,8.4939804077
1.49743298934787E+018,36.5200042725,-10.1449584961,-15.7904930115,50,50.8811798096,23.7854766846,37.2547073364,49.8133964539,26.682352066,32.965713501,58.8338165283,51.5812492371,7.3213963509,51.1546211243,38.1764221191,3.6242859364,13.7342014313,8.4939804077
1.4974329893572E+018,36.5200042725,-9.026424408,-15.7904930115,50,50.8811798096,23.7854766846,37.2547073364,50.629825592,26.682352066,32.965713501,58.8338165283,51.5812492371,7.3213963509,51.1546211243,38.5894317627,3.6242859364,14.498922348,8.4939804077
1.49743298936656E+018,37.4034805298,-8.4671573639,-15.7904930115,50,50.8811798096,23.7854766846,37.2547073364,50.629825592,26.682352066,32.965713501,59.6650924683,49.9937477112,7.3213963509,51.1546211243,38.5894317627,3.6242859364,14.498922348,8.4939804077
1.49743298937585E+018,37.4034805298,-8.4671573639,-15.7904930115,50,49.9758453369,23.7854766846,37.2547073364,51.4462547302,26.682352066,31.5142822266,59.6650924683,49.9937477112,9.4479045868,51.1546211243,38.1764221191,3.6242859364,14.498922348,8.4939804077
1.49743298938505E+018,38.2869567871,-8.4671573639,-15.7904930115,50,49.9758453369,23.7854766846,37.2547073364,51.4462547302,32.6588134766,31.5142822266,59.6650924683,50.7875022888,9.4479045868,50.4512367249,38.1764221191,3.6242859364,14.498922348,8.4939804077
1.49743298939428E+018,39.1704330444,-8.4671573639,-15.7904930115,50,49.9758453369,23.7854766846,37.2547073364,52.2626838684,35.6470565796,31.5142822266,59.6650924683,50.7875022888,9.4479045868,50.4512367249,38.1764221191,3.6242859364,14.498922348,8.4939804077
1.49743298940357E+018,39.1704330444,-8.4671573639,-15.7904930115,50,49.9758453369,23.7854766846,37.2547073364,52.2626838684,35.6470565796,31.5142822266,59.6650924683,50.7875022888,10.5111627579,50.4512367249,38.1764221191,3.6242859364,15.8372077942,8.4939804077
1.49743298941281E+018,39.1704330444,-8.4671573639,-15.7904930115,50,49.9758453369,23.7854766846,37.2547073364,52.2626838684,35.6470565796,31.5142822266,59.6650924683,50.7875022888,10.5111627579,50.4512367249,38.1764221191,3.6242859364,15.8372077942,8.4939804077
1.49743298942213E+018,39.1704330444,-8.4671573639,-15.7904930115,50,48.165145874,23.7854766846,31.8758926392,52.2626838684,35.6470565796,31.5142822266,59.6650924683,50.7875022888,10.5111627579,50.4512367249,38.1764221191,3.6242859364,15.8372077942,8.4939804077
1.49743298943147E+018,39.1704330444,-8.4671573639,-15.7904930115,50,48.165145874,23.7854766846,31.8758926392,52.2626838684,35.6470565796,31.5142822266,59.6650924683,50.7875022888,10.5111627579,49.9236946106,38.1764221191,5.075712204,15.8372077942,8.4939804077
1.49743298944081E+018,39.1704330444,-7.488445282,-11.2184839249,50,48.165145874,22.0601902008,31.8758926392,52.2626838684,35.6470565796,28.6114292145,59.6650924683,50.7875022888,10.5111627579,49.9236946106,38.1764221191,5.075712204,15.8372077942,8.4939804077
1.49743298945003E+018,39.1704330444,-6.9291782379,-8.9324970245,50,47.2597999573,22.0601902008,29.1864757538,52.2626838684,35.6470565796,27.1599979401,59.6650924683,50.7875022888,10.5111627579,49.9236946106,39.4154472351,4.350001812,15.8372077942,8.4939804077
1.49743298945933E+018,40.9373931885,-5.8106441498,-6.6464924812,50,46.3544502258,21.1975460052,29.1864757538,52.2626838684,35.6470565796,25.7085762024,59.6650924683,50.7875022888,10.5111627579,49.9236946106,39.828453064,4.350001812,15.8372077942,8.4939804077
1.4974329894686E+018,40.9373931885,-4.6921100617,-4.3604879379,50,46.3544502258,20.3349094391,29.1864757538,50.629825592,35.6470565796,25.7085762024,58.8338165283,49.1999969482,10.5111627579,48.5169219971,40.6544723511,3.6242859364,15.8372077942,8.4939804077
1.49743298947785E+018,40.9373931885,-4.1328411102,-2.0745007992,50,45.4491043091,19.4722652435,29.1864757538,49.8133964539,35.6470565796,24.257144928,58.8338165283,49.1999969482,8.3846464157,47.813533783,40.6544723511,3.6242859364,15.8372077942,8.4939804077
1.49743298948711E+018,40.9373931885,-3.0143165588,0.2115036845,50,44.5437545776,19.4722652435,29.1864757538,49.8133964539,43.8646965027,24.257144928,57.1712684631,48.40625,9.4479045868,47.813533783,40.6544723511,3.6242859364,15.8372077942,8.4939804077
1.49743298949629E+018,40.9373931885,-1.8957805634,4.7835125923,50,44.5437545776,19.4722652435,23.807641983,48.996963501,43.8646965027,22.8057136536,56.5478210449,48.40625,9.4479045868,47.1101608276,40.6544723511,3.6242859364,15.8372077942,8.4939804077
1.49743298950558E+018,40.9373931885,-0.7772464752,6.4980072975,50,44.5437545776,19.4722652435,26.4970588684,48.1805343628,37.8882369995,24.257144928,56.5478210449,47.6124992371,9.4479045868,47.1101608276,41.4804878235,3.6242859364,15.8372077942,8.4939804077
1.49743298951477E+018,40.9373931885,0.3412799835,11.0699987411,50,44.5437545776,19.4722652435,26.4970588684,48.1805343628,35.6470565796,24.257144928,56.5478210449,46.8187484741,9.4479045868,47.1101608276,41.893497467,3.6242859364,15.8372077942,8.4939804077
1.49743298952406E+018,40.9373931885,1.3199996948,13.3560037613,50,44.5437545776,19.4722652435,29.1864757538,47.3641052246,32.6588134766,24.257144928,56.5478210449,44.4375,9.4479045868,47.1101608276,42.7195129395,3.6242859364,15.8372077942,8.4939804077
1.49743298953331E+018,40.9373931885,2.438533783,15.6420078278,50,44.5437545776,19.4722652435,31.8758926392,47.3641052246,29.670583725,24.257144928,56.5478210449,43.8421897888,9.4479045868,47.1101608276,43.132522583,2.1728596687,15.8372077942,8.4939804077
1.49743298954265E+018,43.5878295898,4.1163253784,17.9280128479,50,44.5437545776,19.4722652435,31.8758926392,47.3641052246,26.682352066,24.257144928,54.8852729797,43.8421897888,9.4479045868,47.1101608276,43.8552856445,0.7214280963,15.8372077942,9.184466362
1.49743298955185E+018,44.2504348755,4.6755943298,22.5000038147,50,46.3544502258,19.4722652435,34.5652885437,47.3641052246,26.682352066,24.257144928,54.8852729797,43.0484390259,9.4479045868,47.1101608276,44.2682914734,-0.0042877458,16.601940155,9.184466362
1.49743298956109E+018,44.2504348755,5.794128418,24.7860088348,50,46.3544502258,19.4722652435,34.5652885437,47.3641052246,26.682352066,24.257144928,54.0539970398,42.2546844482,9.4479045868,47.1101608276,44.6813011169,-0.0042877458,16.601940155,9.184466362
1.49743298957032E+018,45.1339187622,5.794128418,27.0720119476,50,46.3544502258,19.4722652435,37.2547073364,47.3641052246,26.682352066,24.257144928,54.0539970398,41.4609413147,9.4479045868,47.1101608276,45.0943069458,-0.0042877458,16.601940155,9.5790300369
1.49743298957959E+018,45.1339187622,5.794128418,31.6439876556,50,47.2597999573,19.4722652435,37.2547073364,47.3641052246,26.682352066,24.257144928,54.0539970398,41.4609413147,9.4479045868,47.1101608276,45.0943069458,-0.0042877458,16.601940155,9.5790300369
1.49743298958889E+018,45.1339187622,5.794128418,36.2159957886,50,47.2597999573,21.1975460052,37.2547073364,47.3641052246,26.682352066,24.257144928,54.0539970398,41.4609413147,9.4479045868,47.1101608276,45.0943069458,-0.0042877458,16.601940155,9.5790300369
1.4974329895982E+018,45.1339187622,5.794128418,40.2165107727,50,47.2597999573,21.1975460052,37.2547073364,47.3641052246,26.682352066,24.257144928,54.0539970398,41.4609413147,9.4479045868,47.1101608276,45.0943069458,-0.0042877458,16.601940155,9.5790300369
1.49743298960755E+018,45.1339187622,5.794128418,42.5025177002,50,47.2597999573,21.1975460052,37.2547073364,47.3641052246,20.7058811188,24.257144928,54.0539970398,38.2859382629,9.4479045868,47.1101608276,45.0943069458,-0.0042877458,17.3666725159,9.5790300369
1.49743298961671E+018,45.1339187622,5.794128418,47.0744895935,50,47.2597999573,22.0601902008,37.2547073364,47.3641052246,20.7058811188,24.257144928,54.0539970398,39.8734359741,9.4479045868,47.1101608276,45.0943069458,-0.0042877458,17.3666725159,9.5790300369
1.49743298962599E+018,43.5878295898,5.794128418,49.360496521,50,47.2597999573,21.1975460052,37.2547073364,47.3641052246,20.7058811188,24.257144928,54.0539970398,41.4609413147,9.4479045868,47.1101608276,44.2682914734,-0.0042877458,17.3666725159,9.5790300369
1.49743298963528E+018,40.9373931885,4.6755943298,51.6464996338,50,47.2597999573,21.1975460052,39.9441223145,47.3641052246,20.7058811188,27.1599979401,54.0539970398,41.4609413147,9.4479045868,47.1101608276,43.8552856445,-0.0042877458,17.3666725159,9.5790300369
1.49743298964452E+018,39.1704330444,3.5570602417,51.6464996338,50,48.165145874,21.1975460052,39.9441223145,47.3641052246,20.7058811188,28.6114292145,54.0539970398,40.6671905518,9.4479045868,47.1101608276,43.8552856445,-0.0042877458,17.3666725159,9.5790300369
1.49743298965377E+018,36.5200042725,2.438533783,51.6464996338,50,48.165145874,21.1975460052,39.9441223145,47.3641052246,20.7058811188,28.6114292145,54.8852729797,41.4609413147,9.4479045868,47.1101608276,43.5455284119,-0.0042877458,17.3666725159,9.5790300369
1.4974329896631E+018,32.9860916138,1.8792667389,51.6464996338,50,48.165145874,21.1975460052,39.9441223145,45.7312545776,14.7294082642,27.1599979401,54.8852729797,41.4609413147,9.4479045868,47.1101608276,43.8552856445,-0.0042877458,17.3666725159,9.5790300369
1.49743298967235E+018,29.6730422974,0.7607326508,51.6464996338,50,48.165145874,21.1975460052,39.9441223145,44.9148254395,11.7411689758,25.7085762024,54.8852729797,39.8734359741,9.4479045868,47.1101608276,44.6813011169,-0.0042877458,17.3666725159,9.5790300369
1.49743298968158E+018,27.022605896,-0.2179794312,47.0744895935,50,48.165145874,21.1975460052,39.9441223145,44.0983963013,8.7529258728,24.257144928,54.8852729797,39.0796852112,7.3213963509,47.1101608276,46.3333358765,-1.4557139874,16.601940155,9.5790300369
1.49743298969082E+018,24.372177124,-0.7772464752,44.7884864807,50,49.9758453369,21.1975460052,39.9441223145,43.4860687256,5.764705658,22.8057136536,54.8852729797,39.0796852112,6.2581381798,47.1101608276,47.1593475342,-1.4557139874,16.601940155,9.5790300369
1.49743298970005E+018,22.6052246094,-1.8957805634,42.5025177002,50,49.0704956055,21.1975460052,39.9441223145,43.4860687256,2.7764663696,21.3542823792,54.8852729797,39.0796852112,5.1948800087,45.7033882141,47.1593475342,-0.7299981713,16.601940155,9.9735927582
1.49743298970928E+018,20.8382644653,-2.4550476074,38.5019989014,50,49.0704956055,21.1975460052,39.9441223145,42.6696395874,2.7764663696,19.9028606415,54.8852729797,39.0796852112,4.1316218376,45.7033882141,47.1593475342,-0.0042877458,16.601940155,9.9735927582
1.4974329897185E+018,18.187828064,-2.4550476074,36.2159957886,50,49.0704956055,21.1975460052,39.9441223145,42.6696395874,-3.2000160217,18.4514293671,53.2227249146,39.0796852112,3.0683717728,45,47.1593475342,-0.0042877458,16.601940155,9.9735927582
1.49743298972778E+018,16.4208679199,-2.4550476074,31.6439876556,50,49.0704956055,19.4722652435,39.9441223145,41.8532218933,-6.1882362366,15.5485658646,53.2227249146,39.0796852112,2.0051136017,44.2966156006,47.9853668213,-0.0042877458,16.601940155,9.9735927582
1.497432989737E+018,15.7582626343,-2.4550476074,27.0720119476,50,49.0704956055,19.4722652435,39.9441223145,41.8532218933,-9.1764755249,14.4599981308,53.2227249146,39.0796852112,2.0051136017,43.5932350159,47.9853668213,-0.0042877458,16.601940155,9.9735927582
1.4974329897463E+018,15.7582626343,-2.4550476074,24.7860088348,50,49.0704956055,18.6096229553,39.9441223145,41.0367927551,-11.4176483154,14.4599981308,53.2227249146,39.0796852112,2.0051136017,43.5932350159,48.3983726501,-0.0042877458,15.0724754333,10.3681564331
1.49743298975555E+018,16.4208679199,-2.4550476074,20.2139987946,50,49.0704956055,17.7469806671,39.9441223145,41.0367927551,-9.1764755249,13.0085659027,53.2227249146,39.0796852112,2.0051136017,42.8898468018,48.3983726501,-0.0042877458,15.0724754333,10.3681564331
1.49743298976484E+018,15.7582626343,-2.4550476074,15.6420078278,50,49.0704956055,17.7469806671,39.9441223145,40.2203598022,-11.4176483154,11.5571451187,53.2227249146,39.0796852112,2.0051136017,42.1864624023,48.3983726501,-0.0042877458,15.0724754333,10.3681564331
1.49743298977421E+018,14.8747787476,-2.4550476074,13.3560037613,50,49.0704956055,16.8843421936,39.9441223145,38.5875015259,-14.4058914185,10.1057138443,51.5601768494,39.0796852112,-0.1214027256,41.4830780029,48.3983726501,1.4471439123,14.498922348,10.3681564331
1.49743298978346E+018,12.2243499756,-2.4550476074,11.0699987411,50,47.2597999573,16.8843421936,39.9441223145,36.9546394348,-14.4058914185,10.1057138443,49.8976402283,37.4921875,-0.9188423753,40.0763092041,47.1593475342,1.4471439123,14.498922348,10.3681564331
1.49743298979266E+018,10.4573898315,-2.4550476074,8.7840118408,50,47.2597999573,16.2373580933,34.5652885437,36.1382102966,-11.4176483154,8.6542816162,46.5725402832,35.9046859741,-1.9821004868,38.8453865051,47.1593475342,0.7214280963,14.498922348,9.9735927582
1.49743298980179E+018,9.5739135742,-2.4550476074,6.4980072975,50,46.3544502258,16.2373580933,34.5652885437,35.3217926025,-14.4058914185,10.1057138443,43.4552726746,34.3171882629,-3.04535079,36.7352333069,46.7463417053,-0.0042877458,14.498922348,9.9735927582
1.49743298981093E+018,7.8069610596,-2.4550476074,4.7835125923,50,46.3544502258,16.2373580933,31.8758926392,34.5053596497,-14.4058914185,11.5571451187,40.9614486694,29.7531242371,-4.1086087227,34.6250801086,47.5723571777,-0.7299981713,14.498922348,9.9735927582
1.49743298982009E+018,3.3895645142,-2.4550476074,2.497508049,50,45.4491043091,16.2373580933,31.8758926392,33.6889305115,-14.4058914185,13.0085659027,38.4676361084,22.6093769073,-4.1086087227,32.5149230957,49.2243919373,-0.7299981713,14.498922348,9.9735927582
1.49743298982928E+018,-0.8069534302,-2.4550476074,2.497508049,50,44.5437545776,16.2373580933,29.1864757538,32.0560722351,-14.4058914185,11.5571451187,37.6363639832,21.8156261444,-4.1086087227,31.1081562042,48.3983726501,-0.0042877458,14.498922348,9.9735927582
1.49743298983851E+018,-5.2243461609,-1.3365135193,2.497508049,50,42.7330703735,16.2373580933,29.1864757538,31.2396392822,-14.4058914185,10.1057138443,36.8050880432,22.6093769073,-4.1086087227,30.4047698975,47.9853668213,-0.0042877458,14.498922348,9.9735927582
1.49743298984761E+018,-9.6417388916,-0.2179794312,2.497508049,50,40.9223747253,14.5120773315,26.4970588684,30.6273269653,-9.1764755249,8.6542816162,35.1425476074,24.1968746185,-4.1086087227,29.7013835907,47.9853668213,-0.0042877458,14.498922348,9.9735927582
1.49743298985679E+018,-12.9547805786,0.7607326508,2.497508049,50,40.0170249939,15.3747205734,23.807641983,29.8108959198,-9.1764755249,7.2028613091,34.3112716675,24.1968746185,-4.1086087227,28.998003006,48.3983726501,-0.0042877458,14.498922348,9.9735927582
1.49743298986594E+018,-17.3721733093,0.7607326508,2.497508049,50,38.2063293457,15.3747205734,21.1182460785,28.9944667816,-6.1882362366,5.7514295578,33.4799957275,23.4031238556,-4.1086087227,28.4704608917,48.8113822937,-1.4557139874,14.498922348,9.9735927582
1.4974329898752E+018,-20.0226097107,1.3199996948,2.497508049,50,37.5273284912,15.3747205734,21.1182460785,28.9944667816,-6.1882362366,5.7514295578,32.648727417,23.4031238556,-4.1086087227,27.7670783997,48.8113822937,-2.181429863,14.498922348,9.9735927582
1.49743298988443E+018,-23.5565185547,2.438533783,2.497508049,50,35.716632843,15.3747205734,21.1182460785,28.1780357361,-6.1882362366,5.7514295578,31.8174552917,22.6093769073,-4.1086087227,27.0636940002,48.8113822937,-2.181429863,14.498922348,9.9735927582
1.49743298989374E+018,-25.9860877991,2.438533783,2.497508049,50,34.8112831116,15.3747205734,21.1182460785,27.3616046906,-6.1882362366,5.7514295578,31.1940021515,23.4031238556,-4.1086087227,26.3603076935,48.8113822937,-2.181429863,14.498922348,9.9735927582
1.497432989903E+018,-27.7530441284,2.9978027344,2.497508049,50,33.9059333801,15.3747205734,21.1182460785,26.5451755524,-6.1882362366,5.7514295578,30.3627281189,22.6093769073,-4.1086087227,25.6569213867,48.8113822937,-2.181429863,14.498922348,9.9735927582
1.49743298991231E+018,-28.6365203857,2.9978027344,0.2115036845,50,33.0005874634,15.3747205734,21.1182460785,25.7287445068,-6.1882362366,5.7514295578,29.5314540863,23.4031238556,-4.1086087227,25.6569213867,48.8113822937,-3.6328561306,14.498922348,9.5790300369
1.49743298992166E+018,-27.7530441284,2.438533783,0.2115036845,50,32.0952377319,14.5120773315,21.1182460785,25.7287445068,-6.1882362366,5.7514295578,28.7001781464,23.4031238556,-4.1086087227,24.953540802,48.8113822937,-3.6328561306,14.498922348,9.5790300369
1.49743298993096E+018,-28.6365203857,1.8792667389,-6.6464924812,50,32.0952377319,14.5120773315,21.1182460785,24.9123268127,-11.4176483154,8.6542816162,28.7001781464,22.6093769073,-4.1086087227,24.2501544952,48.8113822937,-4.3585720062,14.498922348,9.5790300369
1.4974329899403E+018,-30.4034767151,1.8792667389,-6.6464924812,50,31.1899032593,14.5120773315,21.1182460785,24.0958976746,-14.4058914185,8.6542816162,27.8689117432,22.6093769073,-4.1086087227,22.8433876038,47.9853668213,-4.3585720062,14.498922348,9.5790300369
1.49743298994953E+018,-32.1704330444,1.8792667389,-11.2184839249,50,31.1899032593,14.5120773315,21.1182460785,23.279466629,-14.4058914185,8.6542816162,27.0376358032,22.6093769073,-4.1086087227,22.140001297,48.3983726501,-4.3585720062,15.8372077942,9.5790300369
1.49743298995891E+018,-31.2869567871,0.7607326508,-13.504488945,50,31.1899032593,12.7867908478,15.7394132614,22.4630355835,-11.4176483154,8.6542816162,27.0376358032,22.6093769073,-4.1086087227,21.4366149902,48.3983726501,-4.3585720062,15.8372077942,8.7899036408
1.49743298996819E+018,-33.9373931885,0.7607326508,-15.7904930115,50,31.1899032593,12.7867908478,15.7394132614,22.4630355835,-14.4058914185,8.6542816162,26.2063617706,22.6093769073,-4.1086087227,22.140001297,48.8113822937,-2.181429863,15.8372077942,8.7899036408
1.49743298997742E+018,-35.7043457031,0.7607326508,-13.504488945,50,31.1899032593,12.7867908478,15.7394132614,22.4630355835,-17.3941268921,8.6542816162,26.2063617706,22.6093769073,-4.1086087227,22.8433876038,48.8113822937,-2.181429863,16.601940155,8.7899036408
1.49743298998673E+018,-35.7043457031,0.7607326508,-13.504488945,50,31.1899032593,11.9241542816,15.7394132614,22.4630355835,-14.4058914185,5.7514295578,25.3750934601,21.0218753815,-8.3616333008,24.2501544952,50.3601608276,-2.181429863,16.601940155,8.7899036408
1.49743298999595E+018,-36.5878257751,0.7607326508,-8.9324970245,50,29.3792076111,11.0615110397,15.7394132614,22.4630355835,-14.4058914185,4.2999978066,25.3750934601,20.2281227112,-10.4881420135,24.953540802,51.5991859436,-2.181429863,16.601940155,8.7899036408
1.49743299000522E+018,-35.7043457031,0.7607326508,-11.2184839249,50,29.3792076111,10.1988677979,15.7394132614,22.4630355835,-14.4058914185,5.7514295578,25.3750934601,21.8156261444,-11.5514001846,25.6569213867,52.425201416,-2.181429863,16.601940155,8.7899036408
1.49743299001443E+018,-33.0539131165,0.7607326508,-11.2184839249,50,29.3792076111,10.1988677979,15.7394132614,22.4630355835,-14.4058914185,5.7514295578,25.3750934601,21.8156261444,-13.6779165268,27.7670783997,53.2512207031,-2.181429863,16.601940155,8.7899036408
1.49743299002381E+018,-30.4034767151,0.7607326508,-11.2184839249,50,29.3792076111,10.1988677979,15.7394132614,20.8301753998,-14.4058914185,7.2028613091,25.3750934601,21.8156261444,-13.6779165268,28.998003006,54.0772361755,-0.7299981713,16.601940155,8.7899036408
1.49743299003299E+018,-28.6365203857,0.7607326508,-11.2184839249,50,29.3792076111,10.1988677979,15.7394132614,20.8301753998,-14.4058914185,7.2028613091,25.3750934601,21.8156261444,-14.7411661148,30.4047698975,54.9032516479,-0.7299981713,16.601940155,8.7899036408
1.49743299004225E+018,-27.7530441284,0.7607326508,-11.2184839249,50,29.3792076111,10.1988677979,13.049996376,20.8301753998,-14.4058914185,7.2028613091,25.3750934601,21.8156261444,-14.7411661148,31.8115406036,55.7292671204,-0.7299981713,16.601940155,8.7899036408
1.49743299005139E+018,-25.9860877991,0.7607326508,-11.2184839249,50,29.3792076111,8.4735870361,13.049996376,20.8301753998,-14.4058914185,7.2028613091,25.3750934601,21.8156261444,-15.8044242859,32.5149230957,56.1422767639,-0.0042877458,16.601940155,8.4939804077
1.49743299006058E+018,-25.323474884,0.7607326508,-11.2184839249,50,29.3792076111,8.4735870361,13.049996376,20.8301753998,-14.4058914185,7.2028613091,25.3750934601,21.8156261444,-15.8044242859,33.2183074951,56.5552825928,-0.0042877458,16.601940155,8.4939804077
1.49743299006991E+018,-23.5565185547,0.7607326508,-8.9324970245,50,29.3792076111,8.4735870361,13.049996376,20.8301753998,-14.4058914185,7.2028613091,25.3750934601,21.8156261444,-16.8676834106,33.9216957092,56.8650398254,-0.0042877458,16.601940155,8.4939804077
1.49743299007914E+018,-21.78956604,0.7607326508,-8.9324970245,50,29.3792076111,8.4735870361,13.049996376,20.8301753998,-14.4058914185,7.2028613091,25.3750934601,21.8156261444,-16.8676834106,35.3284606934,57.278049469,-0.0042877458,16.601940155,8.4939804077
1.49743299008847E+018,-20.906085968,0.7607326508,-8.9324970245,50,29.3792076111,8.4735870361,13.049996376,20.8301753998,-14.4058914185,7.2028613091,25.3750934601,21.8156261444,-16.8676834106,36.0318489075,57.278049469,-0.0042877458,16.601940155,8.4939804077
1.49743299009779E+018,-20.0226097107,0.7607326508,-8.9324970245,50,29.3792076111,8.4735870361,18.4288291931,20.8301753998,-20.3823471069,7.2028613091,26.2063617706,20.2281227112,-16.8676834106,36.7352333069,57.6910552979,-0.0042877458,16.601940155,8.4939804077
1.49743299010707E+018,-19.1391296387,0.7607326508,-8.9324970245,50,31.1899032593,8.4735870361,18.4288291931,20.8301753998,-20.3823471069,8.6542816162,26.2063617706,19.4343776703,-16.8676834106,37.4386138916,58.1040649414,-0.0042877458,16.601940155,8.4939804077
1.49743299011627E+018,-19.1391296387,0.7607326508,-8.9324970245,50,31.1899032593,8.4735870361,18.4288291931,20.8301753998,-17.3941268921,8.6542816162,26.2063617706,18.8390598297,-16.8676834106,37.4386138916,58.517074585,-0.0042877458,16.601940155,8.4939804077
1.49743299012554E+018,-18.2556533813,1.3199996948,-11.2184839249,50,31.1899032593,8.4735870361,18.4288291931,20.8301753998,-20.3823471069,8.6542816162,27.8689117432,18.0453147888,-16.8676834106,38.8453865051,59.3430900574,-0.0042877458,16.601940155,8.4939804077
1.49743299013475E+018,-17.3721733093,1.3199996948,-11.2184839249,50,32.0952377319,8.4735870361,18.4288291931,20.8301753998,-17.3941268921,8.6542816162,27.8689117432,17.2515640259,-16.8676834106,39.5487709045,59.7560958862,-0.0042877458,16.601940155,8.4939804077
1.497432990144E+018,-16.488697052,1.3199996948,-11.2184839249,50,32.0952377319,8.4735870361,18.4288291931,20.8301753998,-20.3823471069,8.6542816162,27.8689117432,16.4578132629,-17.6651229858,40.0763092041,59.7560958862,-0.0042877458,16.601940155,8.4939804077
