%time,field.position0,field.position1,field.position2,field.position3,field.position4,field.position5,field.position6,field.position7,field.position8,field.position9,field.position10,field.position11,field.position12,field.position13,field.position14,field.position15,field.position16,field.position17
1.49743251240501E+018,53.0852203369,-10.7042255402,-44.9369888306,50,46.3544502258,17.7469806671,23.807641983,63.4885673523,67.7705841064,32.965713501,69.6403579712,56.9390640259,15.8274374008,56.0783119202,35.3886184692,17.7757167816,12.2047348022,12.340970993
1.4974325124143E+018,54.8521728516,-9.585691452,-44.9369888306,50,46.3544502258,16.8843421936,23.807641983,63.4885673523,70.7588272095,32.965713501,69.6403579712,56.9390640259,15.8274374008,56.0783119202,35.3886184692,17.7757167816,12.2047348022,12.340970993
1.49743251242363E+018,56.6191329956,-8.4671573639,-44.9369888306,50,46.3544502258,16.8843421936,23.807641983,63.4885673523,70.7588272095,32.965713501,67.9778213501,56.9390640259,15.8274374008,56.0783119202,35.3886184692,17.7757167816,12.2047348022,12.340970993
1.49743251243296E+018,57.2817459106,-7.488445282,-44.9369888306,50,46.3544502258,16.8843421936,23.807641983,61.0392875671,73.7470550537,32.965713501,67.9778213501,57.7328109741,15.8274374008,56.0783119202,34.9756088257,17.7757167816,12.2047348022,12.340970993
1.49743251244216E+018,59.0486907959,-6.9291782379,-44.9369888306,50,46.3544502258,16.8843421936,23.807641983,60.222858429,73.7470550537,32.965713501,67.9778213501,57.7328109741,15.8274374008,56.0783119202,34.9756088257,17.7757167816,12.2047348022,12.340970993
1.49743251245146E+018,60.8156509399,-6.3699111939,-44.9369888306,50,46.3544502258,16.8843421936,23.807641983,59.4064292908,73.7470550537,32.965713501,67.1465454102,57.7328109741,15.8274374008,55.3749275208,34.5626029968,17.7757167816,12.9694671631,12.340970993
1.49743251246072E+018,61.6991348267,-6.3699111939,-44.9369888306,50,44.5437545776,16.8843421936,23.807641983,58.5900001526,73.7470550537,32.965713501,67.1465454102,57.7328109741,15.8274374008,55.3749275208,34.1495933533,19.9528598785,12.9694671631,12.340970993
1.49743251246998E+018,63.4660949707,-5.8106441498,-44.9369888306,50,45.4491043091,16.8843421936,23.807641983,57.7735671997,73.7470550537,32.965713501,66.3152770996,59.3203125,14.7641878128,55.3749275208,33.3235778809,21.4042854309,12.9694671631,12.340970993
1.49743251247913E+018,64.349571228,-5.2513771057,-44.9369888306,50,45.4491043091,16.8843421936,23.807641983,56.9571495056,73.7470550537,32.965713501,66.3152770996,59.3203125,14.7641878128,55.3749275208,32.4975624084,24.307144165,12.9694671631,12.340970993
1.49743251248841E+018,65.233039856,-5.2513771057,-44.9369888306,50,45.4491043091,16.2373580933,23.807641983,56.3448257446,73.7470550537,35.8685760498,66.3152770996,59.3203125,14.7641878128,55.3749275208,32.0845527649,26.4842853546,12.9694671631,12.340970993
1.49743251249758E+018,66.1165161133,-4.6921100617,-44.9369888306,50,45.4491043091,16.2373580933,23.807641983,56.3448257446,73.7470550537,35.8685760498,66.3152770996,59.3203125,14.7641878128,55.3749275208,31.2585372925,28.6614341736,12.9694671631,12.340970993
1.49743251250684E+018,67,-4.6921100617,-44.9369888306,50,45.4491043091,16.2373580933,23.807641983,55.5283927917,73.7470550537,37.3199958801,66.3152770996,59.3203125,16.6248855591,55.3749275208,30.8455295563,31.3828601837,12.9694671631,12.340970993
1.49743251251614E+018,67.8834762573,-4.1328411102,-44.9369888306,50,45.4491043091,16.2373580933,23.807641983,55.5283927917,73.7470550537,37.3199958801,64.6527252197,59.3203125,16.6248855591,55.3749275208,30.535774231,33.5600013733,12.9694671631,12.340970993
1.49743251252533E+018,68.7669525146,-4.1328411102,-44.9369888306,50,47.2597999573,16.2373580933,23.807641983,54.7119636536,73.7470550537,38.4085769653,64.6527252197,59.3203125,16.6248855591,55.3749275208,30.1227645874,35.0114326477,12.9694671631,12.340970993
1.49743251253462E+018,70.5339202881,-4.1328411102,-44.9369888306,50,47.2597999573,16.2373580933,29.1864757538,54.7119636536,67.7705841064,38.4085769653,64.6527252197,59.3203125,16.6248855591,55.3749275208,30.1227645874,36.4628639221,12.9694671631,12.340970993
1.49743251254386E+018,70.5339202881,-4.1328411102,-44.9369888306,50,47.2597999573,16.2373580933,29.1864757538,54.7119636536,67.7705841064,38.4085769653,64.6527252197,59.3203125,16.6248855591,55.3749275208,30.535774231,38.6400032043,12.9694671631,12.340970993
1.49743251255313E+018,70.5339202881,-4.1328411102,-44.9369888306,50,47.2597999573,17.7469806671,31.8758926392,54.7119636536,67.7705841064,38.4085769653,64.6527252197,60.9078140259,16.6248855591,55.3749275208,30.535774231,39.9100074768,12.9694671631,12.340970993
1.49743251256231E+018,70.5339202881,-4.1328411102,-44.9369888306,50,47.2597999573,17.7469806671,31.8758926392,54.7119636536,67.7705841064,38.4085769653,64.6527252197,60.9078140259,16.6248855591,55.3749275208,30.8455295563,40.635723114,12.9694671631,12.340970993
1.49743251257158E+018,70.5339202881,-4.1328411102,-44.9369888306,50,47.2597999573,17.7469806671,31.8758926392,54.7119636536,67.7705841064,38.4085769653,64.6527252197,60.9078140259,16.6248855591,55.3749275208,30.8455295563,41.3614273071,12.9694671631,12.340970993
1.49743251258086E+018,70.5339202881,-4.1328411102,-44.9369888306,50,47.2597999573,18.6096229553,31.8758926392,54.7119636536,67.7705841064,38.4085769653,64.6527252197,60.9078140259,18.7513942719,55.3749275208,30.8455295563,42.0871429443,12.9694671631,12.735534668
1.49743251259017E+018,72.0800018311,-4.1328411102,-44.9369888306,50,47.2597999573,19.4722652435,31.8758926392,54.7119636536,67.7705841064,38.4085769653,64.6527252197,60.9078140259,18.7513942719,55.3749275208,30.8455295563,42.8128585815,12.9694671631,12.735534668
1.49743251259948E+018,72.0800018311,-3.0143165588,-49.5089797974,50,47.2597999573,19.4722652435,31.8758926392,54.7119636536,67.7705841064,38.4085769653,64.6527252197,62.4953155518,18.7513942719,55.3749275208,30.8455295563,42.8128585815,12.9694671631,12.735534668
1.49743251260869E+018,72.0800018311,-3.0143165588,-49.5089797974,50,48.165145874,19.4722652435,31.8758926392,54.7119636536,67.7705841064,38.4085769653,64.6527252197,62.4953155518,18.7513942719,55.3749275208,30.8455295563,43.5385742188,12.9694671631,12.735534668
1.49743251261795E+018,72.0800018311,-3.0143165588,-49.5089797974,50,48.165145874,19.4722652435,34.5652885437,54.7119636536,67.7705841064,38.4085769653,64.6527252197,62.4953155518,18.7513942719,55.3749275208,30.8455295563,43.5385742188,12.9694671631,12.735534668
1.49743251262719E+018,72.0800018311,-3.0143165588,-51.7949867249,50,48.165145874,19.4722652435,34.5652885437,54.7119636536,67.7705841064,38.4085769653,64.6527252197,61.7015609741,18.7513942719,55.3749275208,30.8455295563,43.5385742188,12.9694671631,12.735534668
1.49743251263648E+018,72.0800018311,-3.0143165588,-54.0809898376,50,48.165145874,19.4722652435,34.5652885437,54.7119636536,61.7941131592,41.3114280701,64.6527252197,61.7015609741,18.7513942719,55.3749275208,30.1227645874,43.5385742188,12.9694671631,12.735534668
1.49743251264578E+018,72.0800018311,-3.0143165588,-54.0809898376,50,48.165145874,19.4722652435,34.5652885437,54.7119636536,61.7941131592,41.3114280701,64.6527252197,61.7015609741,18.7513942719,55.3749275208,29.7097549438,43.5385742188,12.9694671631,12.735534668
1.49743251265512E+018,73.8469543457,-3.0143165588,-56.3669929504,50,49.0704956055,19.4722652435,34.5652885437,54.7119636536,61.7941131592,41.3114280701,64.6527252197,61.7015609741,18.7513942719,55.3749275208,29.296749115,44.9900054932,12.9694671631,12.735534668
1.49743251266444E+018,73.8469543457,-3.0143165588,-58.6529808044,50,49.0704956055,19.4722652435,34.5652885437,54.7119636536,58.8058815002,42.7628593445,64.6527252197,61.7015609741,18.7513942719,55.3749275208,28.8837413788,44.9900054932,12.9694671631,13.1300983429
1.49743251267381E+018,73.8469543457,-3.0143165588,-58.6529808044,50,49.0704956055,19.4722652435,34.5652885437,54.7119636536,58.8058815002,42.7628593445,64.6527252197,61.7015609741,18.7513942719,55.3749275208,28.8837413788,44.9900054932,12.9694671631,13.1300983429
1.49743251268327E+018,73.8469543457,-3.5735836029,-60.9389877319,50,49.0704956055,19.4722652435,34.5652885437,53.0791053772,58.8058815002,42.7628593445,64.6527252197,61.7015609741,19.8146514893,55.3749275208,28.4707317352,44.9900054932,12.9694671631,13.1300983429
1.4974325126925E+018,73.8469543457,-3.5735836029,-60.9389877319,50,49.0704956055,19.4722652435,37.2547073364,53.0791053772,58.8058815002,42.7628593445,64.6527252197,61.7015609741,19.8146514893,55.3749275208,28.0577220917,44.9900054932,12.9694671631,13.1300983429
1.49743251270182E+018,73.8469543457,-3.5735836029,-63.2249908447,50,49.0704956055,19.4722652435,37.2547073364,53.0791053772,58.8058815002,42.7628593445,64.6527252197,61.7015609741,19.8146514893,54.6715431213,28.0577220917,44.9900054932,12.9694671631,13.1300983429
1.49743251271102E+018,73.8469543457,-3.5735836029,-63.2249908447,50,49.0704956055,18.6096229553,37.2547073364,53.0791053772,58.8058815002,42.7628593445,64.6527252197,61.7015609741,19.8146514893,54.6715431213,27.6447162628,44.9900054932,12.9694671631,13.1300983429
1.49743251272036E+018,73.8469543457,-3.5735836029,-63.2249908447,50,49.9758453369,18.6096229553,37.2547073364,53.0791053772,58.8058815002,42.7628593445,64.6527252197,61.7015609741,19.8146514893,54.6715431213,27.6447162628,44.9900054932,12.9694671631,13.9192237854
1.49743251272968E+018,73.8469543457,-3.5735836029,-63.2249908447,50,49.9758453369,18.6096229553,37.2547073364,53.0791053772,58.8058815002,44.2142944336,64.6527252197,61.7015609741,19.8146514893,54.6715431213,27.6447162628,44.9900054932,12.9694671631,13.9192237854
1.49743251273907E+018,73.8469543457,-3.5735836029,-63.2249908447,50,49.9758453369,18.6096229553,37.2547073364,53.0791053772,58.8058815002,44.2142944336,64.6527252197,62.4953155518,19.8146514893,54.6715431213,27.6447162628,44.9900054932,12.9694671631,13.9192237854
1.49743251274849E+018,73.8469543457,-3.0143165588,-63.2249908447,50,49.9758453369,18.6096229553,37.2547073364,53.0791053772,58.8058815002,44.2142944336,64.6527252197,62.4953155518,20.877910614,54.6715431213,27.6447162628,44.9900054932,12.9694671631,13.9192237854
1.49743251275787E+018,73.8469543457,-3.0143165588,-63.2249908447,50,49.9758453369,16.8843421936,37.2547073364,51.4462547302,58.8058815002,44.2142944336,64.6527252197,62.4953155518,20.877910614,54.6715431213,27.6447162628,44.9900054932,12.9694671631,13.9192237854
1.4974325127673E+018,73.8469543457,-3.0143165588,-65.5109939575,50,49.9758453369,16.8843421936,37.2547073364,51.4462547302,52.829410553,47.1171455383,64.6527252197,62.4953155518,20.877910614,54.6715431213,27.6447162628,44.9900054932,12.9694671631,13.9192237854
1.4974325127766E+018,73.8469543457,-3.0143165588,-65.5109939575,50,51.7865257263,16.8843421936,39.9441223145,51.4462547302,52.829410553,47.1171455383,64.6527252197,62.4953155518,20.877910614,54.6715431213,27.2317085266,44.9900054932,12.9694671631,13.9192237854
1.4974325127859E+018,73.8469543457,-1.8957805634,-65.5109939575,50,50.8811798096,16.8843421936,39.9441223145,51.4462547302,49.84116745,47.1171455383,64.6527252197,60.9078140259,20.877910614,54.6715431213,27.2317085266,44.9900054932,12.9694671631,13.9192237854
1.49743251279516E+018,73.8469543457,-1.8957805634,-65.5109939575,50,51.7865257263,16.8843421936,39.9441223145,51.4462547302,49.84116745,47.1171455383,64.6527252197,60.9078140259,20.877910614,54.6715431213,27.2317085266,44.9900054932,12.9694671631,14.3137874603
1.49743251280457E+018,72.9634857178,-1.8957805634,-65.5109939575,50,51.7865257263,16.8843421936,39.9441223145,51.4462547302,49.84116745,47.1171455383,64.6527252197,60.9078140259,20.877910614,54.6715431213,27.2317085266,44.9900054932,12.9694671631,14.3137874603
1.49743251281379E+018,72.9634857178,-1.8957805634,-65.5109939575,50,51.7865257263,16.8843421936,39.9441223145,51.4462547302,49.84116745,47.1171455383,64.6527252197,60.9078140259,20.877910614,54.6715431213,27.2317085266,44.9900054932,12.9694671631,14.3137874603
1.49743251282324E+018,72.9634857178,-1.8957805634,-65.5109939575,50,51.7865257263,16.8843421936,42.633518219,51.4462547302,49.84116745,47.1171455383,64.6527252197,60.9078140259,21.941160202,54.6715431213,27.2317085266,44.9900054932,12.9694671631,14.3137874603
1.49743251283257E+018,72.9634857178,-1.8957805634,-65.5109939575,50,51.7865257263,16.8843421936,42.633518219,51.4462547302,49.84116745,47.1171455383,64.6527252197,59.3203125,21.941160202,55.3749275208,27.2317085266,44.264289856,12.9694671631,14.3137874603
1.49743251284188E+018,71.1965179443,-1.8957805634,-65.5109939575,50,51.7865257263,16.2373580933,42.633518219,51.4462547302,49.84116745,48.5685768127,64.6527252197,59.3203125,21.941160202,55.3749275208,27.2317085266,44.264289856,12.9694671631,14.3137874603
1.49743251285122E+018,71.1965179443,-1.8957805634,-60.9389877319,50,51.7865257263,16.2373580933,42.633518219,51.4462547302,49.84116745,48.5685768127,64.6527252197,58.5265617371,21.941160202,55.3749275208,27.2317085266,44.264289856,12.9694671631,14.3137874603
1.49743251286045E+018,70.5339202881,-1.8957805634,-60.9389877319,50,51.7865257263,16.2373580933,42.633518219,50.629825592,43.8646965027,48.5685768127,64.6527252197,58.5265617371,21.941160202,55.3749275208,27.2317085266,44.264289856,12.9694671631,14.3137874603
1.49743251286972E+018,69.6504364014,-1.8957805634,-58.6529808044,50,51.7865257263,16.2373580933,42.633518219,50.629825592,43.8646965027,48.5685768127,64.6527252197,57.7328109741,21.941160202,55.3749275208,28.0577220917,42.8128585815,12.9694671631,14.3137874603
1.49743251287885E+018,69.6504364014,-1.8957805634,-56.3669929504,50,51.7865257263,16.2373580933,42.633518219,50.629825592,40.8764648438,48.5685768127,64.6527252197,56.9390640259,21.941160202,56.0783119202,28.0577220917,42.8128585815,12.9694671631,14.3137874603
1.49743251288807E+018,69.6504364014,-1.8957805634,-56.3669929504,50,51.7865257263,16.2373580933,45.3229370117,50.629825592,40.8764648438,48.5685768127,64.6527252197,56.9390640259,21.941160202,56.0783119202,28.4707317352,42.8128585815,12.9694671631,14.3137874603
1.49743251289722E+018,69.6504364014,-1.8957805634,-56.3669929504,50,51.7865257263,16.2373580933,45.3229370117,50.629825592,40.8764648438,48.5685768127,64.6527252197,56.34375,21.941160202,56.0783119202,28.4707317352,42.0871429443,12.9694671631,14.3137874603
1.4974325129065E+018,69.6504364014,-1.8957805634,-56.3669929504,50,51.7865257263,16.2373580933,45.3229370117,50.629825592,40.8764648438,48.5685768127,64.6527252197,56.34375,21.941160202,56.0783119202,28.4707317352,42.0871429443,12.9694671631,14.3137874603
1.49743251291577E+018,69.6504364014,-1.8957805634,-56.3669929504,50,51.7865257263,16.2373580933,45.3229370117,50.629825592,40.8764648438,48.5685768127,64.6527252197,55.5499992371,21.941160202,56.0783119202,28.4707317352,42.0871429443,12.9694671631,14.3137874603
1.49743251292504E+018,69.6504364014,-1.8957805634,-56.3669929504,50,51.7865257263,16.2373580933,45.3229370117,50.629825592,40.8764648438,48.5685768127,64.6527252197,55.5499992371,21.941160202,56.0783119202,28.4707317352,42.0871429443,12.9694671631,14.3137874603
1.49743251293445E+018,69.6504364014,-1.8957805634,-56.3669929504,50,51.7865257263,16.2373580933,45.3229370117,50.629825592,40.8764648438,48.5685768127,65.4840011597,55.5499992371,21.941160202,56.7816886902,28.4707317352,42.0871429443,13.7342014313,14.3137874603
1.49743251294379E+018,69.6504364014,-1.8957805634,-54.0809898376,50,51.7865257263,16.2373580933,45.3229370117,50.629825592,40.8764648438,51.4714279175,65.4840011597,55.5499992371,21.941160202,56.7816886902,28.4707317352,42.0871429443,13.7342014313,14.3137874603
1.49743251295316E+018,69.6504364014,-1.8957805634,-54.0809898376,50,51.7865257263,16.2373580933,45.3229370117,50.629825592,37.8882369995,51.4714279175,65.4840011597,55.5499992371,21.941160202,56.7816886902,28.4707317352,42.0871429443,13.7342014313,14.3137874603
1.49743251296248E+018,69.6504364014,-1.8957805634,-54.0809898376,50,51.7865257263,16.2373580933,45.3229370117,51.4462547302,37.8882369995,51.4714279175,65.4840011597,53.9625015259,21.941160202,56.7816886902,28.4707317352,43.5385742188,13.7342014313,14.3137874603
1.49743251297182E+018,69.6504364014,-1.8957805634,-54.0809898376,50,52.4655418396,16.2373580933,45.3229370117,51.4462547302,37.8882369995,52.9228591919,65.4840011597,53.9625015259,21.941160202,58.1884613037,28.4707317352,43.5385742188,13.7342014313,14.3137874603
1.4974325129811E+018,69.6504364014,-1.8957805634,-54.0809898376,50,52.4655418396,16.2373580933,45.3229370117,51.4462547302,37.8882369995,52.9228591919,65.4840011597,53.1687507629,24.0676765442,58.8918457031,28.0577220917,43.5385742188,13.7342014313,14.3137874603
1.49743251299039E+018,69.6504364014,-1.8957805634,-58.6529808044,50,52.4655418396,16.2373580933,50.0294036865,51.4462547302,37.8882369995,52.9228591919,65.4840011597,53.1687507629,24.0676765442,58.8918457031,28.0577220917,44.264289856,13.7342014313,14.3137874603
1.49743251299972E+018,69.6504364014,-1.8957805634,-58.6529808044,50,52.4655418396,17.7469806671,50.0294036865,51.4462547302,37.8882369995,52.9228591919,67.1465454102,52.375,24.0676765442,59.5952339172,28.0577220917,44.264289856,13.7342014313,14.3137874603
1.49743251300895E+018,69.6504364014,-1.8957805634,-58.6529808044,50,52.4655418396,17.7469806671,50.0294036865,51.4462547302,37.8882369995,52.9228591919,67.1465454102,51.5812492371,24.0676765442,59.5952339172,28.0577220917,44.9900054932,13.7342014313,14.3137874603
1.49743251301831E+018,69.6504364014,-2.4550476074,-60.9389877319,50,52.4655418396,18.6096229553,50.0294036865,51.4462547302,37.8882369995,52.9228591919,67.9778213501,51.5812492371,24.0676765442,60.2986183167,28.0577220917,44.9900054932,13.7342014313,14.3137874603
1.49743251302759E+018,69.6504364014,-2.4550476074,-60.9389877319,50,52.4655418396,18.6096229553,50.0294036865,51.4462547302,35.6470565796,55.8257141113,67.9778213501,50.7875022888,24.0676765442,61.0020065308,28.0577220917,44.9900054932,13.7342014313,14.3137874603
1.49743251303693E+018,69.6504364014,-2.4550476074,-60.9389877319,50,52.4655418396,19.4722652435,50.0294036865,51.4462547302,35.6470565796,55.8257141113,67.9778213501,49.9937477112,24.0676765442,61.0020065308,27.6447162628,44.9900054932,13.7342014313,14.3137874603
1.49743251304624E+018,69.6504364014,-2.4550476074,-60.9389877319,50,52.4655418396,19.4722652435,50.0294036865,53.0791053772,35.6470565796,55.8257141113,67.9778213501,49.1999969482,24.0676765442,61.5295372009,27.6447162628,44.9900054932,13.7342014313,14.3137874603
1.49743251305558E+018,70.5339202881,-2.4550476074,-60.9389877319,50,52.4655418396,20.3349094391,50.0294036865,53.0791053772,35.6470565796,55.8257141113,67.9778213501,48.40625,24.0676765442,61.5295372009,27.6447162628,44.9900054932,12.9694671631,14.3137874603
1.49743251306488E+018,70.5339202881,-2.4550476074,-60.9389877319,50,52.4655418396,21.1975460052,50.0294036865,53.8955345154,35.6470565796,55.8257141113,69.6403579712,47.6124992371,24.0676765442,61.5295372009,27.6447162628,42.8128585815,12.9694671631,14.3137874603
1.49743251307424E+018,70.5339202881,-3.5735836029,-60.9389877319,50,52.4655418396,21.1975460052,50.0294036865,53.8955345154,35.6470565796,55.8257141113,69.6403579712,46.8187484741,24.0676765442,61.5295372009,27.6447162628,41.3614273071,12.9694671631,14.3137874603
1.49743251308363E+018,70.5339202881,-3.5735836029,-63.2249908447,50,52.4655418396,22.0601902008,52.7188224792,54.7119636536,35.6470565796,55.8257141113,70.2638168335,46.0249977112,24.0676765442,61.5295372009,27.6447162628,39.3657188416,12.9694671631,14.3137874603
1.49743251309287E+018,70.5339202881,-3.5735836029,-63.2249908447,50,52.4655418396,22.0601902008,52.7188224792,55.5283927917,35.6470565796,55.8257141113,70.2638168335,45.2312507629,24.0676765442,61.5295372009,29.296749115,36.4628639221,12.9694671631,14.3137874603
1.4974325131022E+018,70.5339202881,-3.5735836029,-63.2249908447,50,53.370891571,22.922832489,52.7188224792,55.5283927917,35.6470565796,55.8257141113,71.0950927734,44.4375,21.941160202,61.5295372009,30.1227645874,33.5600013733,12.9694671631,13.9192237854
1.4974325131114E+018,70.5339202881,-3.5735836029,-63.2249908447,50,53.370891571,22.922832489,52.7188224792,56.3448257446,35.6470565796,55.8257141113,71.9263687134,43.8421897888,20.877910614,62.2329216003,30.8455295563,30.6571445465,12.9694671631,13.9192237854
1.49743251312069E+018,70.5339202881,-3.5735836029,-63.2249908447,50,53.370891571,23.7854766846,52.7188224792,56.3448257446,35.6470565796,55.8257141113,71.9263687134,43.0484390259,19.8146514893,62.2329216003,32.0845527649,27.935716629,12.2047348022,13.9192237854
1.49743251312988E+018,70.5339202881,-3.5735836029,-63.2249908447,50,53.370891571,23.7854766846,52.7188224792,56.9571495056,35.6470565796,55.8257141113,72.7576446533,42.2546844482,18.7513942719,62.2329216003,33.3235778809,25.0328598022,12.2047348022,13.9192237854
1.49743251313913E+018,70.5339202881,-3.5735836029,-63.2249908447,50,53.370891571,24.6481132507,52.7188224792,57.7735671997,35.6470565796,52.9228591919,72.7576446533,41.4609413147,16.6248855591,62.2329216003,33.7365875244,22.8557167053,12.2047348022,13.9192237854
1.49743251314837E+018,70.5339202881,-3.5735836029,-63.2249908447,50,53.370891571,24.6481132507,52.7188224792,58.5900001526,35.6470565796,52.9228591919,73.5889053345,40.6671905518,15.8274374008,62.2329216003,34.9756088257,20.6785755157,12.2047348022,13.9192237854
1.49743251315761E+018,70.5339202881,-3.5735836029,-65.5109939575,50,53.370891571,24.6481132507,52.7188224792,58.5900001526,35.6470565796,52.9228591919,73.5889053345,39.8734359741,14.7641878128,62.9363098145,35.8016281128,18.5014286041,12.2047348022,13.9192237854
1.49743251316693E+018,70.5339202881,-3.5735836029,-65.5109939575,50,53.370891571,24.6481132507,52.7188224792,59.4064292908,32.6588134766,51.4714279175,73.5889053345,39.0796852112,13.7009296417,62.9363098145,36.6276397705,16.5057182312,12.2047348022,13.9192237854
1.49743251317611E+018,70.5339202881,-3.5735836029,-65.5109939575,50,53.370891571,24.6481132507,52.7188224792,59.4064292908,32.6588134766,51.4714279175,73.5889053345,38.2859382629,12.6376714706,62.9363098145,37.0406494141,15.7800016403,12.2047348022,13.9192237854
1.49743251318533E+018,70.5339202881,-3.5735836029,-65.5109939575,50,53.370891571,26.3733997345,52.7188224792,60.222858429,32.6588134766,50.0200080872,73.5889053345,38.2859382629,11.5744132996,62.9363098145,37.7634162903,14.3285703659,12.2047348022,13.9192237854
1.49743251319453E+018,70.5339202881,-3.5735836029,-65.5109939575,50,53.370891571,26.3733997345,52.7188224792,60.222858429,32.6588134766,50.0200080872,73.5889053345,37.4921875,11.5744132996,62.9363098145,38.1764221191,13.6028594971,12.2047348022,13.9192237854
1.49743251320371E+018,70.5339202881,-2.4550476074,-65.5109939575,50,52.4655418396,26.3733997345,52.7188224792,60.222858429,32.6588134766,50.0200080872,73.5889053345,37.4921875,10.5111627579,62.9363098145,38.5894317627,12.8771438599,12.2047348022,13.9192237854
1.4974325132129E+018,70.5339202881,-2.4550476074,-65.5109939575,50,52.4655418396,26.3733997345,52.7188224792,60.222858429,32.6588134766,50.0200080872,73.5889053345,36.6984367371,10.5111627579,62.9363098145,39.0024375916,12.8771438599,12.2047348022,13.9192237854
1.49743251322209E+018,70.5339202881,-2.4550476074,-65.5109939575,50,52.4655418396,26.3733997345,52.7188224792,60.222858429,32.6588134766,50.0200080872,73.5889053345,36.6984367371,9.4479045868,62.9363098145,39.4154472351,12.1514282227,12.2047348022,13.9192237854
1.49743251323133E+018,70.5339202881,-1.8957805634,-65.5109939575,50,52.4655418396,26.3733997345,52.7188224792,60.222858429,32.6588134766,50.0200080872,73.5889053345,36.6984367371,9.4479045868,62.9363098145,39.4154472351,12.1514282227,12.2047348022,13.9192237854
1.49743251324061E+018,70.5339202881,-1.8957805634,-65.5109939575,50,52.4655418396,26.3733997345,52.7188224792,60.222858429,32.6588134766,50.0200080872,73.5889053345,36.6984367371,9.4479045868,62.9363098145,39.828453064,11.4257173538,12.2047348022,13.9192237854
1.49743251324992E+018,70.5339202881,-1.8957805634,-65.5109939575,50,52.4655418396,26.3733997345,52.7188224792,61.0392875671,32.6588134766,47.1171455383,73.5889053345,36.6984367371,9.4479045868,62.9363098145,39.828453064,11.4257173538,11.4400024414,13.9192237854
1.49743251325908E+018,70.5339202881,-1.8957805634,-65.5109939575,50,52.4655418396,26.3733997345,52.7188224792,61.0392875671,32.6588134766,47.1171455383,73.5889053345,36.6984367371,9.4479045868,62.9363098145,40.2414627075,11.4257173538,11.4400024414,13.9192237854
1.49743251326839E+018,68.7669525146,-1.8957805634,-65.5109939575,50,52.4655418396,26.3733997345,52.7188224792,61.0392875671,32.6588134766,47.1171455383,73.5889053345,36.6984367371,9.4479045868,62.9363098145,40.2414627075,11.4257173538,11.4400024414,13.9192237854
1.49743251327765E+018,68.7669525146,-1.8957805634,-65.5109939575,50,52.4655418396,26.3733997345,52.7188224792,61.0392875671,32.6588134766,47.1171455383,73.5889053345,35.9046859741,9.4479045868,62.9363098145,40.6544723511,11.4257173538,11.4400024414,13.9192237854
1.49743251328682E+018,68.7669525146,-0.7772464752,-65.5109939575,50,52.4655418396,26.3733997345,52.7188224792,61.0392875671,32.6588134766,47.1171455383,73.5889053345,35.9046859741,7.3213963509,62.9363098145,40.6544723511,11.4257173538,11.4400024414,13.9192237854
1.49743251329606E+018,67.8834762573,-0.7772464752,-65.5109939575,50,52.4655418396,26.3733997345,52.7188224792,61.0392875671,32.6588134766,47.1171455383,73.5889053345,35.9046859741,7.3213963509,62.9363098145,41.0674819946,11.4257173538,11.4400024414,13.9192237854
1.49743251330537E+018,67.8834762573,-0.7772464752,-60.9389877319,50,52.4655418396,26.3733997345,52.7188224792,61.85572052,32.6588134766,47.1171455383,73.5889053345,35.9046859741,6.2581381798,61.5295372009,41.4804878235,11.4257173538,11.4400024414,13.9192237854
1.49743251331464E+018,67,-0.2179794312,-60.9389877319,50,52.4655418396,26.3733997345,52.7188224792,61.85572052,32.6588134766,44.2142944336,71.9263687134,35.9046859741,5.1948800087,60.2986183167,42.3065032959,11.4257173538,11.4400024414,13.9192237854
1.49743251332395E+018,66.1165161133,-0.2179794312,-56.3669929504,50,52.4655418396,26.3733997345,52.7188224792,61.85572052,32.6588134766,44.2142944336,71.0950927734,35.9046859741,5.1948800087,58.1884613037,43.132522583,11.4257173538,11.4400024414,14.7083511353
1.49743251333327E+018,65.233039856,-0.2179794312,-51.7949867249,50,52.4655418396,26.3733997345,52.7188224792,61.85572052,26.682352066,42.7628593445,70.2638168335,34.3171882629,4.1316218376,56.0783119202,43.8552856445,11.4257173538,11.4400024414,15.0042724609
1.49743251334248E+018,65.233039856,-0.2179794312,-44.9369888306,50,51.7865257263,26.3733997345,52.7188224792,61.85572052,23.6941108704,41.3114280701,69.6403579712,34.3171882629,4.1316218376,54.6715431213,45.0943069458,9.9742860794,11.4400024414,15.0042724609
1.49743251335177E+018,64.349571228,-1.3365135193,-40.3649978638,50,51.7865257263,27.2360363007,52.7188224792,61.85572052,20.7058811188,41.3114280701,68.8090820312,32.7296905518,3.0683717728,53.2647705078,46.3333358765,9.2485704422,11.4400024414,15.0042724609
1.49743251336093E+018,64.349571228,-2.4550476074,-35.7929878235,50,51.7865257263,27.2360363007,52.7188224792,61.85572052,17.7176399231,39.8599967957,67.1465454102,32.7296905518,2.0051136017,51.8579978943,47.1593475342,8.5228595734,11.4400024414,15.0042724609
1.49743251337024E+018,63.4660949707,-4.1328411102,-31.2209968567,50,51.7865257263,27.2360363007,52.7188224792,62.6721496582,17.7176399231,39.8599967957,66.3152770996,32.7296905518,2.0051136017,51.1546211243,47.5723571777,8.5228595734,11.4400024414,15.0042724609
1.49743251337947E+018,60.8156509399,-4.6921100617,-27.2204971313,50,51.7865257263,27.2360363007,52.7188224792,62.6721496582,17.7176399231,38.4085769653,66.3152770996,32.7296905518,2.0051136017,49.9236946106,48.3983726501,7.0714278221,9.9105377197,15.0042724609
1.49743251338874E+018,57.2817459106,-5.2513771057,-22.6484889984,50,51.7865257263,27.2360363007,50.0294036865,62.6721496582,17.7176399231,37.3199958801,65.4840011597,29.7531242371,2.0051136017,49.9236946106,50.0504074097,6.3457121849,9.9105377197,15.0042724609
1.49743251339791E+018,53.0852203369,-5.8106441498,-18.0764980316,50,51.7865257263,27.2360363007,50.0294036865,62.6721496582,17.7176399231,35.8685760498,64.6527252197,32.7296905518,2.0051136017,49.2203063965,48.8113822937,5.8014278412,9.1458034515,15.7933998108
1.49743251340719E+018,49.5513076782,-5.8106441498,-15.7904930115,50,49.9758453369,27.2360363007,50.0294036865,61.0392875671,17.7176399231,35.8685760498,63.8214492798,31.9359378815,2.0051136017,47.813533783,49.2243919373,4.350001812,9.1458034515,15.7933998108
1.49743251341647E+018,47.7843475342,-5.8106441498,-13.504488945,50,49.9758453369,27.2360363007,50.0294036865,60.222858429,17.7176399231,35.8685760498,62.1589012146,31.3406276703,2.0051136017,47.1101608276,49.2243919373,3.6242859364,8.3810825348,15.7933998108
1.49743251342574E+018,46.0173873901,-5.8106441498,-11.2184839249,50,49.0704956055,27.2360363007,50.0294036865,59.4064292908,17.7176399231,35.8685760498,61.3276405334,31.3406276703,2.0051136017,46.4067726135,48.8113822937,3.6242859364,8.3810825348,15.7933998108
1.4974325134351E+018,42.7043533325,-6.9291782379,-8.9324970245,50,49.0704956055,27.2360363007,50.0294036865,58.5900001526,17.7176399231,35.8685760498,60.4963645935,30.5468769073,2.0051136017,45.7033882141,49.2243919373,2.8985700607,8.3810825348,15.7933998108
1.49743251344429E+018,40.9373931885,-7.488445282,-6.6464924812,50,49.0704956055,26.3733997345,50.0294036865,56.9571495056,11.7411689758,32.965713501,58.8338165283,30.5468769073,-0.1214027256,45,49.2243919373,2.1728596687,8.3810825348,15.7933998108
1.49743251345357E+018,40.9373931885,-8.0477046967,-6.6464924812,50,49.0704956055,26.3733997345,47.3399887085,56.3448257446,11.7411689758,32.965713501,58.0025405884,30.5468769073,-0.1214027256,44.2966156006,49.6373977661,2.1728596687,8.3810825348,15.7933998108
1.49743251346279E+018,40.9373931885,-8.4671573639,-4.3604879379,50,47.2597999573,26.3733997345,47.3399887085,55.5283927917,14.7294082642,31.5142822266,57.1712684631,30.5468769073,-0.1214027256,43.5932350159,50.0504074097,2.1728596687,8.3810825348,15.7933998108
1.49743251347208E+018,40.9373931885,-8.4671573639,-4.3604879379,50,47.2597999573,26.3733997345,47.3399887085,53.8955345154,14.7294082642,30.0628604889,55.7165489197,30.5468769073,-0.1214027256,42.8898468018,50.0504074097,2.1728596687,8.3810825348,15.7933998108
1.49743251348134E+018,40.9373931885,-8.4671573639,-2.0745007992,50,46.3544502258,26.3733997345,42.633518219,53.0791053772,14.7294082642,30.0628604889,54.8852729797,30.5468769073,-0.1214027256,42.1864624023,49.6373977661,2.1728596687,8.3810825348,15.7933998108
1.49743251349068E+018,39.1704330444,-8.4671573639,-2.0745007992,50,46.3544502258,25.5107555389,42.633518219,51.4462547302,14.7294082642,28.6114292145,53.2227249146,28.9593734741,-0.1214027256,42.1864624023,49.6373977661,2.1728596687,9.9105377197,15.7933998108
1.49743251349996E+018,37.4034805298,-8.4671573639,-2.0745007992,50,45.4491043091,25.5107555389,39.9441223145,50.629825592,14.7294082642,28.6114292145,52.3914489746,28.9593734741,-0.1214027256,41.4830780029,49.2243919373,2.1728596687,9.9105377197,15.7933998108
1.49743251350914E+018,36.5200042725,-9.585691452,-2.0745007992,50,44.5437545776,25.5107555389,39.9441223145,48.996963501,14.7294082642,27.1599979401,50.7289123535,28.1656265259,-0.1214027256,40.7796936035,49.2243919373,3.6242859364,9.9105377197,15.7933998108
1.49743251351843E+018,35.6365203857,-9.585691452,-2.0745007992,50,43.6384048462,23.7854766846,37.2547073364,48.1805343628,14.7294082642,25.7085762024,49.0663642883,28.1656265259,-0.1214027256,40.0763092041,49.2243919373,4.350001812,10.6752700806,15.7933998108
1.49743251352765E+018,34.7530441284,-10.1449584961,-2.0745007992,50,42.7330703735,23.7854766846,37.2547073364,46.5476875305,20.7058811188,25.7085762024,48.2350883484,28.1656265259,-0.1214027256,39.5487709045,49.2243919373,4.350001812,11.4400024414,15.7933998108
1.49743251353692E+018,33.8695678711,-10.1449584961,-2.0745007992,50,41.8277244568,23.7854766846,34.5652885437,44.9148254395,20.7058811188,24.257144928,46.5725402832,28.1656265259,-0.9188423753,38.1420021057,49.2243919373,4.350001812,11.4400024414,15.7933998108
1.49743251354606E+018,32.9860916138,-10.7042255402,-2.0745007992,50,40.9223747253,22.922832489,34.5652885437,43.4860687256,23.6941108704,22.8057136536,44.9100036621,28.1656265259,-0.9188423753,37.4386138916,49.2243919373,4.350001812,12.2047348022,15.0042724609
1.49743251355528E+018,32.1026077271,-11.2634849548,-2.0745007992,50,40.9223747253,22.922832489,31.8758926392,41.8532218933,26.682352066,21.3542823792,43.4552726746,28.1656265259,-0.9188423753,36.7352333069,48.3983726501,4.350001812,12.9694671631,14.7083511353
1.49743251356445E+018,31.2191314697,-11.2634849548,-2.0745007992,50,40.0170249939,22.0601902008,29.1864757538,41.0367927551,26.682352066,21.3542823792,41.7927246094,28.1656265259,-0.9188423753,36.0318489075,47.9853668213,4.350001812,12.9694671631,14.7083511353
1.49743251357367E+018,30.3356552124,-11.8227519989,-2.0745007992,50,39.1116790771,22.0601902008,26.4970588684,39.4039306641,29.670583725,19.9028606415,40.9614486694,28.1656265259,-0.9188423753,34.6250801086,47.9853668213,4.350001812,13.7342014313,14.7083511353
1.49743251358288E+018,30.3356552124,-11.8227519989,-2.0745007992,50,38.2063293457,22.0601902008,26.4970588684,38.5875015259,29.670583725,18.4514293671,40.1301879883,29.7531242371,-3.04535079,33.9216957092,47.9853668213,4.350001812,13.7342014313,14.7083511353
1.49743251359213E+018,29.6730422974,-11.8227519989,-2.0745007992,50,38.2063293457,22.0601902008,23.807641983,37.771068573,32.6588134766,16.9999980927,38.4676361084,29.7531242371,-3.04535079,33.2183074951,47.9853668213,4.350001812,13.7342014313,14.7083511353
1.49743251360146E+018,27.9060897827,-11.8227519989,-2.0745007992,50,37.5273284912,22.0601902008,23.807641983,36.9546394348,32.6588134766,16.9999980927,37.6363639832,29.7531242371,-3.04535079,33.2183074951,47.9853668213,4.350001812,13.7342014313,14.7083511353
1.49743251361069E+018,27.022605896,-11.8227519989,-2.0745007992,50,37.5273284912,22.0601902008,21.1182460785,36.1382102966,32.6588134766,16.9999980927,36.8050880432,29.7531242371,-3.04535079,32.5149230957,47.1593475342,2.8985700607,13.7342014313,14.7083511353
1.49743251361997E+018,25.2556533813,-12.941286087,-2.0745007992,50,36.6219787598,20.3349094391,21.1182460785,35.3217926025,32.6588134766,16.9999980927,35.9738197327,29.7531242371,-3.04535079,32.5149230957,47.1593475342,2.8985700607,13.7342014313,14.7083511353
1.49743251362916E+018,23.4886932373,-12.382019043,-2.0745007992,50,36.6219787598,20.3349094391,21.1182460785,34.5053596497,32.6588134766,16.9999980927,35.1425476074,29.7531242371,-3.04535079,31.8115406036,47.1593475342,2.8985700607,13.7342014313,13.9192237854
1.49743251363839E+018,21.7217407227,-12.382019043,-2.0745007992,50,36.6219787598,19.4722652435,21.1182460785,33.6889305115,32.6588134766,16.9999980927,35.1425476074,29.7531242371,-3.04535079,31.8115406036,46.7463417053,2.8985700607,13.7342014313,13.9192237854
1.49743251364758E+018,19.0713043213,-12.382019043,-2.0745007992,50,36.6219787598,19.4722652435,21.1182460785,32.8725013733,32.6588134766,16.9999980927,34.3112716675,29.7531242371,-3.04535079,31.1081562042,46.7463417053,2.8985700607,13.7342014313,13.9192237854
1.49743251365693E+018,17.3043441772,-12.382019043,-2.0745007992,50,34.8112831116,19.4722652435,21.1182460785,32.0560722351,32.6588134766,14.4599981308,33.4799957275,30.5468769073,-3.04535079,30.4047698975,46.7463417053,2.8985700607,13.7342014313,13.9192237854
1.49743251366609E+018,14.8747787476,-12.382019043,-2.0745007992,50,34.8112831116,19.4722652435,21.1182460785,31.2396392822,32.6588134766,14.4599981308,32.648727417,30.5468769073,-3.04535079,30.4047698975,46.7463417053,2.8985700607,13.7342014313,13.9192237854
1.49743251367529E+018,13.1078262329,-12.382019043,-2.0745007992,50,33.9059333801,19.4722652435,15.7394132614,30.6273269653,32.6588134766,14.4599981308,31.8174552917,30.5468769073,-3.04535079,29.7013835907,46.7463417053,2.8985700607,13.7342014313,13.9192237854
1.49743251368454E+018,10.4573898315,-12.382019043,-2.0745007992,50,33.0005874634,19.4722652435,15.7394132614,29.8108959198,32.6588134766,13.0085659027,31.1940021515,30.5468769073,-3.04535079,29.7013835907,46.7463417053,2.8985700607,13.7342014313,13.9192237854
1.49743251369377E+018,7.8069610596,-12.382019043,-2.0745007992,50,32.0952377319,17.7469806671,15.7394132614,28.9944667816,26.682352066,13.0085659027,30.3627281189,30.5468769073,-3.04535079,28.998003006,46.7463417053,2.8985700607,13.7342014313,13.9192237854
1.49743251370297E+018,4.2730484009,-12.382019043,-2.0745007992,50,32.0952377319,17.7469806671,15.7394132614,28.9944667816,26.682352066,11.5571451187,30.3627281189,30.5468769073,-3.04535079,28.998003006,46.3333358765,2.8985700607,13.7342014313,13.1300983429
1.4974325137121E+018,2.5060844421,-12.382019043,-2.0745007992,50,32.0952377319,17.7469806671,15.7394132614,28.1780357361,26.682352066,13.0085659027,30.3627281189,30.5468769073,-3.04535079,28.4704608917,46.3333358765,2.8985700607,13.7342014313,13.1300983429
1.49743251372137E+018,0.0765266418,-12.382019043,-2.0745007992,50,32.0952377319,17.7469806671,15.7394132614,28.1780357361,23.6941108704,13.0085659027,30.3627281189,30.5468769073,-3.04535079,28.4704608917,46.3333358765,2.8985700607,13.7342014313,13.1300983429
1.49743251373064E+018,-1.6904335022,-11.2634849548,-2.0745007992,50,32.0952377319,17.7469806671,15.7394132614,27.3616046906,23.6941108704,13.0085659027,30.3627281189,30.5468769073,-3.04535079,28.4704608917,46.3333358765,1.4471439123,13.7342014313,13.1300983429
1.49743251373989E+018,-2.5739135742,-11.2634849548,-2.0745007992,50,32.0952377319,17.7469806671,15.7394132614,27.3616046906,23.6941108704,13.0085659027,30.3627281189,30.5468769073,-3.04535079,28.4704608917,46.3333358765,1.4471439123,13.7342014313,13.1300983429
1.49743251374923E+018,-3.4573898315,-10.7042255402,-2.0745007992,50,30.2845554352,17.7469806671,15.7394132614,27.3616046906,23.6941108704,13.0085659027,30.3627281189,30.5468769073,-3.04535079,28.4704608917,46.3333358765,0.7214280963,13.7342014313,13.1300983429
1.49743251375857E+018,-4.3408699036,-10.1449584961,-2.0745007992,50,30.2845554352,17.7469806671,15.7394132614,27.3616046906,23.6941108704,13.0085659027,29.5314540863,30.5468769073,-3.04535079,28.4704608917,46.3333358765,0.7214280963,12.9694671631,13.1300983429
1.49743251376797E+018,-3.4573898315,-10.1449584961,-2.0745007992,50,30.2845554352,17.7469806671,15.7394132614,27.3616046906,17.7176399231,15.5485658646,29.5314540863,30.5468769073,-3.04535079,28.4704608917,46.3333358765,-0.0042877458,12.9694671631,13.1300983429
1.49743251377726E+018,-3.4573898315,-9.585691452,-2.0745007992,50,30.2845554352,17.7469806671,21.1182460785,27.3616046906,20.7058811188,16.9999980927,29.5314540863,31.9359378815,-3.04535079,27.7670783997,46.3333358765,-0.0042877458,12.9694671631,13.1300983429
1.49743251378655E+018,-2.5739135742,-9.585691452,-2.0745007992,50,30.2845554352,17.7469806671,23.807641983,27.3616046906,17.7176399231,18.4514293671,29.5314540863,31.9359378815,-3.04535079,27.7670783997,46.3333358765,-0.7299981713,12.9694671631,12.735534668
1.49743251379578E+018,-1.6904335022,-9.585691452,-2.0745007992,50,30.2845554352,17.7469806671,26.4970588684,27.3616046906,17.7176399231,18.4514293671,29.5314540863,31.9359378815,-3.04535079,27.7670783997,47.1593475342,-2.181429863,12.9694671631,12.735534668
1.49743251380507E+018,-0.8069534302,-9.585691452,-2.0745007992,50,30.2845554352,16.8843421936,29.1864757538,26.5451755524,14.7294082642,19.9028606415,29.5314540863,31.9359378815,-1.9821004868,27.7670783997,47.1593475342,-2.9071457386,12.9694671631,12.735534668
1.4974325138143E+018,-0.8069534302,-9.585691452,-2.0745007992,50,30.2845554352,16.8843421936,31.8758926392,26.5451755524,11.7411689758,21.3542823792,29.5314540863,31.9359378815,-1.9821004868,27.7670783997,47.1593475342,-3.6328561306,14.498922348,12.735534668
1.4974325138236E+018,0.0765266418,-9.585691452,-2.0745007992,50,32.0952377319,16.8843421936,34.5652885437,26.5451755524,11.7411689758,22.8057136536,29.5314540863,31.9359378815,-1.9821004868,27.7670783997,47.1593475342,-4.3585720062,14.498922348,12.735534668
1.49743251383289E+018,0.9599990845,-9.585691452,-2.0745007992,50,33.0005874634,16.8843421936,37.2547073364,26.5451755524,8.7529258728,22.8057136536,31.1940021515,30.5468769073,-1.9821004868,27.7670783997,47.1593475342,-4.3585720062,15.0724754333,12.735534668
1.49743251384215E+018,0.9599990845,-9.585691452,-2.0745007992,50,33.9059333801,16.8843421936,39.9441223145,26.5451755524,2.7764663696,21.3542823792,31.1940021515,28.9593734741,-1.9821004868,27.7670783997,47.9853668213,-3.6328561306,15.0724754333,12.735534668
1.49743251385141E+018,1.8434791565,-9.585691452,-2.0745007992,50,34.8112831116,16.8843421936,39.9441223145,28.1780357361,-3.2000160217,21.3542823792,31.1940021515,27.3718757629,-1.9821004868,27.7670783997,48.8113822937,-2.9071457386,15.0724754333,12.735534668
1.49743251386054E+018,2.5060844421,-9.585691452,-2.0745007992,50,36.6219787598,18.6096229553,39.9441223145,28.9944667816,-6.1882362366,21.3542823792,31.8174552917,28.1656265259,-1.9821004868,27.7670783997,49.2243919373,-2.181429863,15.0724754333,12.735534668
1.49743251386973E+018,3.3895645142,-9.585691452,-2.0745007992,50,37.5273284912,19.4722652435,39.9441223145,29.8108959198,-9.1764755249,21.3542823792,32.648727417,28.1656265259,-1.9821004868,27.7670783997,49.6373977661,-2.9071457386,15.0724754333,12.735534668
1.49743251387893E+018,5.1565170288,-9.585691452,-2.0745007992,50,37.5273284912,19.4722652435,39.9441223145,30.6273269653,-9.1764755249,21.3542823792,33.4799957275,28.9593734741,-1.9821004868,27.7670783997,49.2243919373,-2.9071457386,15.0724754333,12.735534668
1.49743251388818E+018,6.9234771729,-9.585691452,-2.0745007992,50,37.5273284912,20.3349094391,39.9441223145,30.6273269653,-6.1882362366,21.3542823792,33.4799957275,29.7531242371,-0.1214027256,27.7670783997,49.2243919373,-2.9071457386,15.0724754333,12.735534668
1.49743251389737E+018,7.8069610596,-9.585691452,-2.0745007992,50,37.5273284912,20.3349094391,39.9441223145,31.2396392822,-3.2000160217,21.3542823792,34.3112716675,30.5468769073,-0.1214027256,27.7670783997,49.2243919373,-2.9071457386,15.0724754333,12.735534668
1.49743251390671E+018,7.8069610596,-9.585691452,-2.0745007992,50,37.5273284912,20.3349094391,39.9441223145,32.0560722351,-6.1882362366,19.9028606415,34.3112716675,30.5468769073,-0.1214027256,28.998003006,49.2243919373,-2.9071457386,15.8372077942,12.735534668
1.49743251391589E+018,7.8069610596,-9.585691452,-2.0745007992,50,37.5273284912,20.3349094391,39.9441223145,32.8725013733,-3.2000160217,19.9028606415,35.1425476074,30.5468769073,-0.1214027256,28.998003006,49.2243919373,-2.9071457386,15.8372077942,12.735534668
1.49743251392505E+018,7.8069610596,-9.585691452,-2.0745007992,50,37.5273284912,20.3349094391,39.9441223145,33.6889305115,-3.2000160217,19.9028606415,35.9738197327,30.5468769073,-0.1214027256,29.7013835907,49.2243919373,-2.9071457386,15.8372077942,12.735534668
1.49743251393441E+018,7.8069610596,-9.585691452,-2.0745007992,50,37.5273284912,20.3349094391,39.9441223145,34.5053596497,-3.2000160217,19.9028606415,36.8050880432,30.5468769073,-0.1214027256,30.4047698975,49.2243919373,-2.9071457386,15.8372077942,12.735534668
1.49743251394373E+018,7.8069610596,-9.585691452,-2.0745007992,50,39.1116790771,22.0601902008,39.9441223145,35.3217926025,-3.2000160217,19.9028606415,36.8050880432,31.9359378815,-0.1214027256,31.1081562042,48.3983726501,-1.4557139874,15.8372077942,12.735534668
1.49743251395306E+018,9.5739135742,-9.585691452,-2.0745007992,50,39.1116790771,22.0601902008,39.9441223145,36.1382102966,-3.2000160217,19.9028606415,37.6363639832,31.9359378815,-0.1214027256,31.8115406036,48.3983726501,-1.4557139874,15.8372077942,12.735534668
1.49743251396233E+018,10.4573898315,-9.585691452,-2.0745007992,50,39.1116790771,22.0601902008,39.9441223145,36.9546394348,-3.2000160217,19.9028606415,38.4676361084,32.7296905518,-0.1214027256,31.8115406036,47.9853668213,-0.7299981713,15.8372077942,12.735534668
1.49743251397172E+018,11.3408737183,-9.585691452,2.497508049,50,40.0170249939,22.922832489,39.9441223145,37.771068573,-3.2000160217,19.9028606415,38.4676361084,32.7296905518,0.9418554306,32.5149230957,47.9853668213,-0.7299981713,15.8372077942,12.735534668
1.49743251398101E+018,12.2243499756,-10.7042255402,2.497508049,50,40.0170249939,22.922832489,39.9441223145,38.5875015259,-0.2117767334,19.9028606415,39.2989120483,32.7296905518,0.9418554306,33.2183074951,47.5723571777,-0.7299981713,15.0724754333,12.735534668
1.49743251399037E+018,13.1078262329,-10.7042255402,2.497508049,50,40.0170249939,22.922832489,39.9441223145,38.5875015259,-0.2117767334,19.9028606415,40.1301879883,32.7296905518,0.9418554306,33.9216957092,47.5723571777,-0.7299981713,15.0724754333,12.735534668
1.49743251399962E+018,13.9913101196,-10.7042255402,2.497508049,50,40.0170249939,22.922832489,37.2547073364,39.4039306641,-0.2117767334,21.3542823792,40.1301879883,32.7296905518,0.9418554306,33.9216957092,47.1593475342,-0.7299981713,15.0724754333,12.735534668
1.49743251400882E+018,14.8747787476,-11.2634849548,2.497508049,50,40.0170249939,22.922832489,37.2547073364,40.2203598022,-0.2117767334,21.3542823792,40.9614486694,32.7296905518,0.9418554306,34.6250801086,47.5723571777,-0.7299981713,15.0724754333,12.735534668
1.49743251401802E+018,14.8747787476,-11.2634849548,2.497508049,50,40.0170249939,22.922832489,37.2547073364,40.2203598022,5.764705658,21.3542823792,41.7927246094,32.7296905518,0.9418554306,34.6250801086,47.5723571777,-0.7299981713,15.0724754333,12.735534668
1.49743251402723E+018,15.7582626343,-11.2634849548,2.497508049,50,40.0170249939,22.922832489,37.2547073364,41.0367927551,5.764705658,21.3542823792,41.7927246094,34.3171882629,0.9418554306,34.6250801086,47.5723571777,-0.7299981713,15.0724754333,12.735534668
1.49743251403646E+018,15.7582626343,-11.2634849548,2.497508049,50,40.0170249939,22.922832489,37.2547073364,41.0367927551,5.764705658,21.3542823792,42.6239967346,34.3171882629,0.9418554306,34.6250801086,47.5723571777,-2.181429863,15.0724754333,12.735534668
1.4974325140456E+018,15.7582626343,-11.2634849548,2.497508049,50,40.0170249939,22.922832489,37.2547073364,41.0367927551,5.764705658,21.3542823792,42.6239967346,33.5234375,0.9418554306,34.6250801086,47.5723571777,-2.9071457386,15.0724754333,12.340970993
1.49743251405488E+018,15.7582626343,-11.2634849548,2.497508049,50,40.0170249939,22.922832489,37.2547073364,41.0367927551,5.764705658,21.3542823792,42.6239967346,33.5234375,0.9418554306,34.6250801086,47.5723571777,-2.9071457386,15.0724754333,12.340970993
1.49743251406416E+018,13.9913101196,-11.2634849548,2.497508049,50,40.0170249939,22.922832489,37.2547073364,41.0367927551,5.764705658,21.3542823792,42.6239967346,33.5234375,0.9418554306,34.6250801086,47.5723571777,-3.6328561306,15.0724754333,12.340970993
1.49743251407353E+018,13.1078262329,-11.2634849548,2.497508049,50,38.2063293457,22.922832489,37.2547073364,41.0367927551,5.764705658,21.3542823792,42.6239967346,33.5234375,0.9418554306,34.6250801086,46.7463417053,-3.6328561306,15.0724754333,12.340970993
1.49743251408282E+018,12.2243499756,-11.2634849548,4.7835125923,50,37.5273284912,21.1975460052,37.2547073364,41.0367927551,11.7411689758,21.3542823792,42.6239967346,33.5234375,0.9418554306,34.6250801086,46.3333358765,-4.3585720062,15.0724754333,12.340970993
1.4974325140921E+018,11.3408737183,-11.2634849548,4.7835125923,50,36.6219787598,21.1975460052,31.8758926392,41.0367927551,14.7294082642,21.3542823792,42.6239967346,33.5234375,-0.1214027256,34.6250801086,46.7463417053,-4.3585720062,13.7342014313,12.340970993
1.49743251410136E+018,10.4573898315,-11.2634849548,4.7835125923,50,36.6219787598,20.3349094391,31.8758926392,39.4039306641,14.7294082642,21.3542823792,42.6239967346,33.5234375,-0.1214027256,34.6250801086,46.7463417053,-4.3585720062,13.7342014313,12.340970993
1.49743251411061E+018,8.6904296875,-11.2634849548,4.7835125923,50,35.716632843,20.3349094391,31.8758926392,39.4039306641,17.7176399231,21.3542823792,42.6239967346,33.5234375,-0.1214027256,34.6250801086,46.7463417053,-4.3585720062,13.7342014313,12.340970993
1.4974325141199E+018,7.8069610596,-11.2634849548,4.7835125923,50,34.8112831116,19.4722652435,31.8758926392,37.771068573,14.7294082642,21.3542823792,42.6239967346,33.5234375,-0.1214027256,34.6250801086,46.7463417053,-4.3585720062,13.7342014313,12.340970993
1.49743251412916E+018,6.9234771729,-11.2634849548,4.7835125923,50,34.8112831116,19.4722652435,31.8758926392,36.9546394348,14.7294082642,21.3542823792,40.9614486694,33.5234375,-0.1214027256,33.2183074951,46.7463417053,-4.3585720062,13.7342014313,11.9464082718
1.49743251413846E+018,6.0400009155,-11.2634849548,6.4980072975,50,34.8112831116,18.6096229553,31.8758926392,36.1382102966,17.7176399231,21.3542823792,40.1301879883,33.5234375,-0.1214027256,33.2183074951,46.7463417053,-4.3585720062,13.7342014313,11.9464082718
1.49743251414768E+018,5.1565170288,-10.7042255402,6.4980072975,50,34.8112831116,18.6096229553,31.8758926392,35.3217926025,14.7294082642,21.3542823792,40.1301879883,33.5234375,-0.1214027256,32.5149230957,46.7463417053,-4.3585720062,13.7342014313,11.9464082718
1.49743251415694E+018,4.2730484009,-10.7042255402,6.4980072975,50,34.8112831116,18.6096229553,31.8758926392,34.5053596497,17.7176399231,21.3542823792,39.2989120483,33.5234375,-0.1214027256,32.5149230957,46.7463417053,-4.3585720062,13.7342014313,11.9464082718
1.49743251416616E+018,3.3895645142,-10.7042255402,6.4980072975,50,34.8112831116,18.6096229553,31.8758926392,34.5053596497,14.7294082642,21.3542823792,38.4676361084,33.5234375,-0.1214027256,32.5149230957,46.7463417053,-4.3585720062,12.9694671631,11.9464082718
1.4974325141754E+018,2.5060844421,-10.7042255402,6.4980072975,50,34.8112831116,18.6096229553,29.1864757538,33.6889305115,14.7294082642,19.9028606415,38.4676361084,33.5234375,-0.1214027256,32.5149230957,46.7463417053,-4.3585720062,12.9694671631,11.9464082718
1.49743251418476E+018,2.5060844421,-10.7042255402,6.4980072975,50,33.0005874634,18.6096229553,29.1864757538,33.6889305115,14.7294082642,19.9028606415,38.4676361084,33.5234375,-0.1214027256,32.5149230957,46.7463417053,-4.3585720062,12.9694671631,11.9464082718
1.49743251419413E+018,2.5060844421,-10.7042255402,6.4980072975,50,33.0005874634,18.6096229553,29.1864757538,32.8725013733,14.7294082642,19.9028606415,38.4676361084,33.5234375,-0.1214027256,32.5149230957,46.7463417053,-4.3585720062,12.9694671631,11.9464082718
1.49743251420353E+018,2.5060844421,-10.7042255402,6.4980072975,50,33.0005874634,16.8843421936,29.1864757538,32.8725013733,14.7294082642,19.9028606415,38.4676361084,33.5234375,-0.1214027256,32.5149230957,46.7463417053,-4.3585720062,12.9694671631,11.9464082718
1.49743251421301E+018,2.5060844421,-10.7042255402,6.4980072975,50,33.0005874634,16.8843421936,29.1864757538,32.8725013733,14.7294082642,19.9028606415,38.4676361084,31.9359378815,-0.1214027256,31.1081562042,46.7463417053,-4.3585720062,14.498922348,12.735534668
1.49743251422244E+018,0.0765266418,-10.1449584961,6.4980072975,50,33.0005874634,16.8843421936,29.1864757538,32.8725013733,23.6941108704,22.8057136536,36.8050880432,33.5234375,-0.1214027256,31.1081562042,44.6813011169,-5.0842876434,14.498922348,12.735534668
1.49743251423169E+018,0.9599990845,-10.1449584961,6.4980072975,50,33.0005874634,17.7469806671,23.807641983,35.3217926025,32.6588134766,22.8057136536,36.8050880432,35.9046859741,-0.1214027256,30.4047698975,43.5455284119,-5.0842876434,14.498922348,12.735534668
1.49743251424088E+018,1.8434791565,-10.1449584961,6.4980072975,50,35.716632843,18.6096229553,21.1182460785,36.1382102966,32.6588134766,21.3542823792,36.8050880432,37.4921875,-0.1214027256,31.1081562042,43.132522583,-2.9071457386,14.498922348,13.1300983429
1.49743251425015E+018,0.9599990845,-10.1449584961,6.4980072975,50,36.6219787598,19.4722652435,21.1182460785,36.9546394348,32.6588134766,21.3542823792,36.8050880432,38.2859382629,-0.1214027256,31.1081562042,42.7195129395,-2.9071457386,14.498922348,13.1300983429
1.49743251425926E+018,0.9599990845,-10.1449584961,6.4980072975,50,37.5273284912,20.3349094391,21.1182460785,36.9546394348,32.6588134766,21.3542823792,36.8050880432,39.0796852112,-0.1214027256,31.1081562042,42.3065032959,-2.181429863,14.498922348,12.735534668
1.49743251426844E+018,1.8434791565,-10.1449584961,6.4980072975,50,38.2063293457,21.1975460052,21.1182460785,37.771068573,32.6588134766,21.3542823792,36.8050880432,39.0796852112,-0.1214027256,31.1081562042,42.3065032959,-2.181429863,14.498922348,12.735534668
1.49743251427765E+018,1.8434791565,-10.1449584961,6.4980072975,50,38.2063293457,22.0601902008,21.1182460785,37.771068573,32.6588134766,21.3542823792,36.8050880432,39.8734359741,2.0051136017,31.1081562042,42.3065032959,-2.181429863,14.498922348,12.735534668
1.49743251428697E+018,1.8434791565,-10.1449584961,6.4980072975,50,39.1116790771,22.0601902008,21.1182460785,37.771068573,32.6588134766,21.3542823792,36.8050880432,39.8734359741,2.0051136017,31.1081562042,42.3065032959,-2.181429863,14.498922348,12.735534668
1.49743251429629E+018,1.8434791565,-10.1449584961,6.4980072975,50,39.1116790771,22.0601902008,21.1182460785,37.771068573,32.6588134766,21.3542823792,36.8050880432,39.0796852112,0.9418554306,31.1081562042,42.3065032959,-2.181429863,14.498922348,12.735534668
1.49743251430567E+018,0.0765266418,-10.1449584961,6.4980072975,50,40.0170249939,22.0601902008,21.1182460785,37.771068573,26.682352066,21.3542823792,36.8050880432,39.0796852112,2.0051136017,31.1081562042,42.3065032959,-2.181429863,14.498922348,11.9464082718
1.49743251431489E+018,-0.8069534302,-10.1449584961,6.4980072975,50,39.1116790771,22.0601902008,21.1182460785,37.771068573,26.682352066,21.3542823792,36.8050880432,39.0796852112,0.9418554306,31.1081562042,42.3065032959,-2.181429863,14.498922348,11.9464082718
1.49743251432426E+018,-1.6904335022,-10.1449584961,6.4980072975,50,39.1116790771,22.0601902008,21.1182460785,37.771068573,26.682352066,21.3542823792,36.8050880432,39.0796852112,0.9418554306,31.1081562042,42.3065032959,-2.181429863,14.498922348,11.9464082718
1.49743251433357E+018,-2.5739135742,-10.1449584961,6.4980072975,50,39.1116790771,22.0601902008,18.4288291931,37.771068573,26.682352066,21.3542823792,36.8050880432,39.0796852112,0.9418554306,31.1081562042,42.3065032959,-2.181429863,12.9694671631,11.9464082718
1.4974325143428E+018,-3.4573898315,-10.1449584961,6.4980072975,50,39.1116790771,22.0601902008,18.4288291931,37.771068573,26.682352066,21.3542823792,36.8050880432,39.0796852112,0.9418554306,31.1081562042,42.3065032959,-0.7299981713,12.9694671631,11.9464082718
1.49743251435205E+018,-4.3408699036,-10.1449584961,6.4980072975,50,39.1116790771,22.0601902008,18.4288291931,36.1382102966,26.682352066,21.3542823792,36.8050880432,39.0796852112,0.9418554306,31.1081562042,43.132522583,-0.7299981713,12.9694671631,11.9464082718
1.49743251436136E+018,-5.2243461609,-10.1449584961,6.4980072975,50,39.1116790771,22.0601902008,18.4288291931,36.1382102966,26.682352066,21.3542823792,36.8050880432,37.4921875,0.9418554306,31.1081562042,43.132522583,-0.0042877458,12.9694671631,11.9464082718
1.49743251437064E+018,-5.2243461609,-10.1449584961,2.497508049,50,39.1116790771,22.0601902008,18.4288291931,35.3217926025,26.682352066,21.3542823792,36.8050880432,36.6984367371,0.9418554306,31.1081562042,43.5455284119,-0.0042877458,12.9694671631,11.9464082718
1.49743251437988E+018,-6.1078262329,-9.026424408,2.497508049,50,39.1116790771,22.0601902008,18.4288291931,33.6889305115,20.7058811188,21.3542823792,36.8050880432,35.9046859741,0.9418554306,31.1081562042,43.5455284119,-0.0042877458,12.9694671631,11.9464082718
1.49743251438914E+018,-5.2243461609,-8.4671573639,0.2115036845,50,37.5273284912,22.0601902008,18.4288291931,32.8725013733,20.7058811188,19.9028606415,36.8050880432,35.1109390259,0.9418554306,31.1081562042,43.5455284119,-0.0042877458,12.9694671631,11.9464082718
1.49743251439843E+018,-5.2243461609,-8.4671573639,-2.0745007992,50,36.6219787598,20.3349094391,18.4288291931,31.2396392822,20.7058811188,19.9028606415,36.8050880432,34.3171882629,0.9418554306,31.1081562042,43.5455284119,-0.0042877458,12.9694671631,11.9464082718
1.49743251440769E+018,-4.3408699036,-8.4671573639,-2.0745007992,50,36.6219787598,20.3349094391,18.4288291931,29.8108959198,20.7058811188,19.9028606415,35.9738197327,33.5234375,0.9418554306,31.1081562042,43.5455284119,-0.0042877458,12.9694671631,11.9464082718
1.49743251441696E+018,-2.5739135742,-8.4671573639,-4.3604879379,50,36.6219787598,20.3349094391,18.4288291931,28.9944667816,20.7058811188,19.9028606415,35.9738197327,32.7296905518,0.9418554306,31.1081562042,43.5455284119,-0.0042877458,12.9694671631,11.9464082718
1.49743251442626E+018,-1.6904335022,-7.488445282,-6.6464924812,50,36.6219787598,19.4722652435,23.807641983,27.3616046906,20.7058811188,19.9028606415,35.9738197327,32.7296905518,0.9418554306,31.1081562042,43.5455284119,-0.0042877458,12.9694671631,11.9464082718
1.49743251443562E+018,-1.6904335022,-6.3699111939,-6.6464924812,50,36.6219787598,19.4722652435,23.807641983,26.5451755524,20.7058811188,19.9028606415,35.9738197327,31.9359378815,0.9418554306,32.5149230957,43.5455284119,-0.0042877458,12.9694671631,11.9464082718
1.49743251444489E+018,-1.6904335022,-5.8106441498,-8.9324970245,50,36.6219787598,19.4722652435,23.807641983,25.7287445068,14.7294082642,19.9028606415,35.9738197327,31.9359378815,0.9418554306,32.5149230957,44.2682914734,-0.0042877458,12.9694671631,11.9464082718
1.49743251445422E+018,-1.6904335022,-4.6921100617,-11.2184839249,50,34.8112831116,19.4722652435,26.4970588684,25.7287445068,14.7294082642,19.9028606415,35.9738197327,30.5468769073,-0.1214027256,32.5149230957,44.2682914734,-0.0042877458,12.2047348022,11.9464082718
1.49743251446344E+018,-3.4573898315,-4.1328411102,-11.2184839249,50,34.8112831116,19.4722652435,29.1864757538,24.9123268127,14.7294082642,19.9028606415,35.9738197327,30.5468769073,-0.1214027256,32.5149230957,44.2682914734,-1.4557139874,12.2047348022,11.9464082718
1.49743251447273E+018,-3.4573898315,-4.1328411102,-13.504488945,50,34.8112831116,19.4722652435,29.1864757538,24.9123268127,11.7411689758,19.9028606415,35.9738197327,29.7531242371,-0.1214027256,32.5149230957,44.2682914734,-2.181429863,12.2047348022,11.9464082718
1.49743251448197E+018,-1.6904335022,-3.5735836029,-13.504488945,50,34.8112831116,19.4722652435,31.8758926392,24.0958976746,11.7411689758,19.9028606415,35.9738197327,29.7531242371,-0.1214027256,32.5149230957,44.2682914734,-2.181429863,12.2047348022,11.9464082718
1.49743251449121E+018,-0.8069534302,-3.0143165588,-15.7904930115,50,34.8112831116,17.7469806671,34.5652885437,24.0958976746,8.7529258728,22.8057136536,35.9738197327,28.9593734741,-0.1214027256,32.5149230957,44.2682914734,-2.9071457386,12.2047348022,11.9464082718
1.49743251450051E+018,0.9599990845,-2.4550476074,-15.7904930115,50,34.8112831116,17.7469806671,34.5652885437,24.0958976746,8.7529258728,22.8057136536,35.9738197327,28.1656265259,-0.1214027256,33.9216957092,44.2682914734,-2.9071457386,12.2047348022,11.9464082718
1.49743251450975E+018,2.5060844421,-2.4550476074,-15.7904930115,50,34.8112831116,17.7469806671,37.2547073364,24.0958976746,5.764705658,24.257144928,35.9738197327,27.3718757629,-0.1214027256,33.9216957092,44.2682914734,-2.9071457386,12.2047348022,11.9464082718
1.49743251451907E+018,3.3895645142,-1.8957805634,-15.7904930115,50,34.8112831116,17.7469806671,39.9441223145,24.0958976746,2.7764663696,24.257144928,35.9738197327,26.5781230927,-0.1214027256,33.9216957092,44.2682914734,-2.9071457386,12.2047348022,12.340970993
