%time,field.position0,field.position1,field.position2,field.position3,field.position4,field.position5,field.position6,field.position7,field.position8,field.position9,field.position10,field.position11,field.position12,field.position13,field.position14,field.position15,field.position16,field.position17
1.49743195990049E+018,16.4208679199,-13.5005531311,4.7835125923,50,37.5273284912,18.6096229553,26.4970588684,41.8532218933,23.6941108704,19.9028606415,40.9614486694,35.1109390259,-0.1214027256,37.4386138916,44.2682914734,-2.181429863,18.8961277008,9.5790300369
1.49743195990982E+018,15.7582626343,-14.6190881729,4.7835125923,50,36.6219787598,17.7469806671,23.807641983,41.8532218933,23.6941108704,16.9999980927,40.1301879883,35.1109390259,-0.1214027256,37.4386138916,44.2682914734,-2.181429863,18.8961277008,9.5790300369
1.49743195991911E+018,13.9913101196,-15.1783466339,4.7835125923,50,35.716632843,17.7469806671,21.1182460785,42.6696395874,23.6941108704,14.4599981308,40.1301879883,35.1109390259,-0.1214027256,37.4386138916,45.0943069458,-2.181429863,18.8961277008,9.5790300369
1.49743195992833E+018,13.1078262329,-15.7376146317,4.7835125923,50,34.8112831116,17.7469806671,18.4288291931,43.4860687256,29.670583725,14.4599981308,40.1301879883,35.1109390259,-0.1214027256,36.0318489075,45.5073165894,-0.7299981713,18.8961277008,9.5790300369
1.49743195993751E+018,11.3408737183,-15.7376146317,4.7835125923,50,34.8112831116,17.7469806671,18.4288291931,44.0983963013,32.6588134766,14.4599981308,40.1301879883,35.1109390259,-0.1214027256,36.7352333069,45.5073165894,-0.0042877458,18.8961277008,9.5790300369
1.4974319599467E+018,12.2243499756,-16.2968826294,4.7835125923,50,35.716632843,17.7469806671,18.4288291931,44.9148254395,35.6470565796,14.4599981308,40.1301879883,36.6984367371,-0.1214027256,36.7352333069,44.6813011169,0.7214280963,18.8961277008,9.5790300369
1.4974319599559E+018,13.9913101196,-16.2968826294,4.7835125923,50,35.716632843,17.7469806671,18.4288291931,45.7312545776,35.6470565796,14.4599981308,40.1301879883,37.4921875,-0.1214027256,37.4386138916,44.2682914734,1.4471439123,18.8961277008,9.5790300369
1.49743195996513E+018,15.7582626343,-16.8561477661,4.7835125923,50,35.716632843,17.7469806671,18.4288291931,46.5476875305,37.8882369995,14.4599981308,41.7927246094,38.2859382629,2.0051136017,37.4386138916,43.8552856445,2.1728596687,18.8961277008,9.5790300369
1.49743195997431E+018,17.3043441772,-16.8561477661,4.7835125923,50,35.716632843,17.7469806671,18.4288291931,47.3641052246,37.8882369995,14.4599981308,42.6239967346,38.2859382629,2.0051136017,38.1420021057,43.8552856445,2.8985700607,18.8961277008,9.5790300369
1.49743195998357E+018,19.0713043213,-16.8561477661,4.7835125923,50,35.716632843,17.7469806671,18.4288291931,48.1805343628,40.8764648438,14.4599981308,43.4552726746,38.2859382629,2.0051136017,38.8453865051,43.5455284119,3.6242859364,18.8961277008,9.5790300369
1.49743195999286E+018,19.9547805786,-16.8561477661,4.7835125923,50,35.716632843,17.7469806671,18.4288291931,48.996963501,43.8646965027,15.5485658646,43.4552726746,38.2859382629,2.0051136017,39.5487709045,43.5455284119,3.6242859364,18.8961277008,9.5790300369
1.49743196000225E+018,20.8382644653,-16.8561477661,4.7835125923,50,35.716632843,17.7469806671,18.4288291931,49.8133964539,40.8764648438,15.5485658646,44.0787315369,38.2859382629,2.0051136017,39.5487709045,43.5455284119,4.350001812,18.1314048767,9.5790300369
1.49743196001149E+018,21.7217407227,-16.8561477661,4.7835125923,50,37.5273284912,17.7469806671,18.4288291931,50.629825592,43.8646965027,15.5485658646,44.9100036621,39.8734359741,2.0051136017,39.5487709045,43.5455284119,5.075712204,18.1314048767,9.5790300369
1.4974319600208E+018,21.7217407227,-16.8561477661,4.7835125923,50,37.5273284912,17.7469806671,13.049996376,50.629825592,43.8646965027,13.0085659027,44.9100036621,40.6671905518,2.0051136017,39.5487709045,43.5455284119,5.075712204,18.1314048767,9.184466362
1.49743196003001E+018,21.7217407227,-16.8561477661,4.7835125923,50,37.5273284912,17.7469806671,13.049996376,51.4462547302,46.852935791,11.5571451187,45.741268158,40.6671905518,2.0051136017,39.5487709045,43.5455284119,5.075712204,18.1314048767,9.184466362
1.49743196003924E+018,21.7217407227,-16.8561477661,4.7835125923,50,38.2063293457,18.6096229553,13.049996376,51.4462547302,46.852935791,11.5571451187,45.741268158,40.6671905518,2.0051136017,39.5487709045,43.5455284119,5.075712204,18.1314048767,9.184466362
1.49743196004851E+018,21.7217407227,-16.8561477661,4.7835125923,50,39.1116790771,18.6096229553,13.049996376,52.2626838684,46.852935791,11.5571451187,46.5725402832,40.6671905518,2.0051136017,39.5487709045,43.5455284119,5.075712204,18.1314048767,9.184466362
1.49743196005775E+018,21.7217407227,-16.8561477661,4.7835125923,50,39.1116790771,18.6096229553,13.049996376,52.2626838684,46.852935791,11.5571451187,46.5725402832,40.6671905518,2.0051136017,40.0763092041,44.2682914734,3.6242859364,18.1314048767,9.184466362
1.49743196006698E+018,23.4886932373,-16.8561477661,4.7835125923,50,40.0170249939,18.6096229553,13.049996376,51.4462547302,46.852935791,11.5571451187,46.5725402832,40.6671905518,2.0051136017,40.0763092041,44.2682914734,3.6242859364,18.1314048767,9.184466362
1.49743196007626E+018,25.2556533813,-16.8561477661,4.7835125923,50,40.0170249939,18.6096229553,13.049996376,50.629825592,46.852935791,11.5571451187,46.5725402832,40.6671905518,2.0051136017,40.0763092041,45.0943069458,2.8985700607,18.1314048767,9.184466362
1.49743196008563E+018,27.9060897827,-16.8561477661,4.7835125923,50,40.0170249939,20.3349094391,18.4288291931,48.996963501,37.8882369995,11.5571451187,46.5725402832,40.6671905518,2.0051136017,40.0763092041,45.5073165894,1.4471439123,18.1314048767,9.184466362
1.49743196009483E+018,28.78956604,-16.8561477661,4.7835125923,50,40.0170249939,20.3349094391,21.1182460785,48.996963501,35.6470565796,11.5571451187,46.5725402832,40.6671905518,2.0051136017,40.0763092041,45.0943069458,0.7214280963,18.1314048767,9.184466362
1.49743196010419E+018,28.78956604,-16.8561477661,4.7835125923,50,41.8277244568,20.3349094391,21.1182460785,48.996963501,35.6470565796,14.4599981308,46.5725402832,40.6671905518,2.0051136017,40.0763092041,45.0943069458,-0.0042877458,18.1314048767,9.184466362
1.49743196011345E+018,29.6730422974,-16.8561477661,4.7835125923,50,41.8277244568,21.1975460052,21.1182460785,48.996963501,35.6470565796,15.5485658646,46.5725402832,39.0796852112,2.0051136017,40.7796936035,45.0943069458,-0.7299981713,18.1314048767,9.5790300369
1.49743196012268E+018,30.3356552124,-16.8561477661,4.7835125923,50,41.8277244568,21.1975460052,21.1182460785,48.996963501,35.6470565796,16.9999980927,46.5725402832,39.0796852112,2.0051136017,40.7796936035,45.0943069458,-0.7299981713,18.1314048767,9.5790300369
1.49743196013202E+018,31.2191314697,-16.8561477661,4.7835125923,50,42.7330703735,21.1975460052,21.1182460785,48.996963501,35.6470565796,16.9999980927,46.5725402832,39.0796852112,2.0051136017,40.7796936035,45.0943069458,-2.181429863,18.1314048767,9.5790300369
1.49743196014126E+018,31.2191314697,-16.2968826294,4.7835125923,50,42.7330703735,21.1975460052,26.4970588684,48.996963501,35.6470565796,18.4514293671,46.5725402832,39.8734359741,2.0051136017,40.7796936035,45.0943069458,-2.9071457386,18.1314048767,9.5790300369
1.49743196015052E+018,31.2191314697,-16.2968826294,4.7835125923,50,43.6384048462,21.1975460052,26.4970588684,48.996963501,35.6470565796,19.9028606415,46.5725402832,39.0796852112,2.0051136017,40.7796936035,45.0943069458,-3.6328561306,18.1314048767,9.5790300369
1.49743196015987E+018,31.2191314697,-15.1783466339,4.7835125923,50,44.5437545776,21.1975460052,29.1864757538,48.996963501,35.6470565796,21.3542823792,46.5725402832,39.0796852112,4.1316218376,40.7796936035,44.2682914734,-5.0842876434,18.1314048767,9.9735927582
1.49743196016925E+018,31.2191314697,-14.6190881729,4.7835125923,50,45.4491043091,21.1975460052,31.8758926392,48.996963501,29.670583725,22.8057136536,48.2350883484,39.0796852112,4.1316218376,40.7796936035,44.2682914734,-5.6285719872,18.1314048767,9.9735927582
1.49743196017832E+018,31.2191314697,-14.0598211288,4.7835125923,50,45.4491043091,21.1975460052,31.8758926392,48.996963501,26.682352066,24.257144928,48.2350883484,39.0796852112,4.1316218376,40.7796936035,43.8552856445,-6.3542876244,18.1314048767,9.9735927582
1.49743196018758E+018,31.2191314697,-13.5005531311,4.7835125923,50,46.3544502258,21.1975460052,34.5652885437,48.996963501,23.6941108704,25.7085762024,48.2350883484,39.0796852112,5.1948800087,40.7796936035,43.5455284119,-7.0799980164,18.1314048767,9.9735927582
1.49743196019699E+018,28.78956604,-13.5005531311,4.7835125923,50,46.3544502258,22.922832489,34.5652885437,48.996963501,26.682352066,25.7085762024,48.2350883484,39.0796852112,5.1948800087,40.7796936035,43.5455284119,-8.5314302445,17.3666725159,9.9735927582
1.49743196020623E+018,27.9060897827,-13.5005531311,4.7835125923,50,47.2597999573,22.922832489,34.5652885437,47.3641052246,23.6941108704,27.1599979401,48.2350883484,40.6671905518,5.1948800087,40.7796936035,43.8552856445,-9.2571458817,17.3666725159,10.3681564331
1.49743196021541E+018,27.022605896,-13.5005531311,4.7835125923,50,47.2597999573,22.922832489,34.5652885437,47.3641052246,23.6941108704,27.1599979401,48.2350883484,40.6671905518,5.1948800087,40.7796936035,43.8552856445,-9.9828557968,17.3666725159,10.3681564331
1.49743196022462E+018,26.1391296387,-13.5005531311,8.7840118408,50,47.2597999573,23.7854766846,34.5652885437,46.5476875305,23.6941108704,25.7085762024,48.2350883484,41.4609413147,5.1948800087,40.7796936035,44.2682914734,-10.708571434,17.3666725159,10.3681564331
1.49743196023386E+018,26.1391296387,-13.5005531311,8.7840118408,50,47.2597999573,23.7854766846,34.5652885437,46.5476875305,23.6941108704,25.7085762024,48.2350883484,41.4609413147,5.1948800087,40.7796936035,44.6813011169,-10.708571434,17.3666725159,10.3681564331
1.49743196024314E+018,26.1391296387,-13.5005531311,8.7840118408,50,47.2597999573,23.7854766846,34.5652885437,46.5476875305,23.6941108704,25.7085762024,48.2350883484,42.2546844482,5.1948800087,40.7796936035,45.5073165894,-10.708571434,17.3666725159,10.3681564331
1.49743196025241E+018,26.1391296387,-14.6190881729,8.7840118408,50,47.2597999573,23.7854766846,34.5652885437,46.5476875305,23.6941108704,25.7085762024,49.0663642883,42.2546844482,5.1948800087,40.7796936035,45.9203262329,-10.708571434,17.3666725159,10.3681564331
1.49743196026166E+018,28.78956604,-14.6190881729,8.7840118408,50,47.2597999573,23.7854766846,34.5652885437,46.5476875305,23.6941108704,25.7085762024,49.0663642883,43.0484390259,5.1948800087,40.0763092041,45.5073165894,-10.708571434,17.3666725159,10.3681564331
1.49743196027099E+018,29.6730422974,-14.6190881729,8.7840118408,50,47.2597999573,23.7854766846,34.5652885437,46.5476875305,23.6941108704,25.7085762024,50.7289123535,43.0484390259,5.1948800087,40.0763092041,45.9203262329,-12.1600008011,17.3666725159,10.7627191544
1.49743196028016E+018,30.3356552124,-14.6190881729,8.7840118408,50,47.2597999573,23.7854766846,34.5652885437,48.1805343628,17.7176399231,28.6114292145,50.7289123535,41.4609413147,5.1948800087,40.0763092041,46.3333358765,-12.1600008011,17.3666725159,10.7627191544
1.4974319602894E+018,30.3356552124,-14.6190881729,8.7840118408,50,47.2597999573,23.7854766846,39.9441223145,48.996963501,17.7176399231,28.6114292145,51.5601768494,40.6671905518,5.1948800087,40.0763092041,46.3333358765,-12.1600008011,17.3666725159,10.7627191544
1.49743196029871E+018,30.3356552124,-14.6190881729,8.7840118408,50,47.2597999573,23.7854766846,39.9441223145,49.8133964539,17.7176399231,28.6114292145,51.5601768494,40.6671905518,5.1948800087,40.0763092041,46.3333358765,-12.1600008011,17.3666725159,10.7627191544
1.49743196030797E+018,30.3356552124,-14.6190881729,8.7840118408,50,47.2597999573,23.7854766846,42.633518219,49.8133964539,17.7176399231,28.6114292145,52.3914489746,39.8734359741,5.1948800087,40.0763092041,46.3333358765,-12.1600008011,17.3666725159,10.7627191544
1.49743196031726E+018,28.78956604,-14.6190881729,8.7840118408,50,48.165145874,23.7854766846,39.9441223145,49.8133964539,17.7176399231,28.6114292145,52.3914489746,39.8734359741,5.1948800087,40.0763092041,46.3333358765,-12.1600008011,17.3666725159,10.7627191544
1.49743196032652E+018,28.78956604,-14.6190881729,8.7840118408,50,48.165145874,23.7854766846,39.9441223145,49.8133964539,17.7176399231,28.6114292145,52.3914489746,40.6671905518,5.1948800087,40.7796936035,46.3333358765,-12.1600008011,17.3666725159,10.7627191544
1.49743196033588E+018,28.78956604,-14.6190881729,8.7840118408,50,48.165145874,23.7854766846,39.9441223145,49.8133964539,17.7176399231,28.6114292145,52.3914489746,40.6671905518,6.2581381798,40.7796936035,45.5073165894,-12.1600008011,17.3666725159,10.7627191544
1.4974319603451E+018,29.6730422974,-14.6190881729,8.7840118408,50,48.165145874,23.7854766846,39.9441223145,49.8133964539,17.7176399231,28.6114292145,52.3914489746,41.4609413147,6.2581381798,40.7796936035,45.0943069458,-12.1600008011,17.3666725159,10.7627191544
1.49743196035437E+018,29.6730422974,-14.6190881729,8.7840118408,50,48.165145874,23.7854766846,39.9441223145,49.8133964539,17.7176399231,28.6114292145,52.3914489746,42.2546844482,6.2581381798,40.7796936035,45.0943069458,-12.1600008011,17.3666725159,10.7627191544
1.49743196036377E+018,30.3356552124,-14.6190881729,8.7840118408,50,49.0704956055,23.7854766846,39.9441223145,50.629825592,17.7176399231,28.6114292145,52.3914489746,42.2546844482,6.2581381798,40.7796936035,44.6813011169,-13.6114301682,15.8372077942,10.7627191544
1.49743196037307E+018,31.2191314697,-14.6190881729,8.7840118408,50,49.0704956055,23.7854766846,39.9441223145,50.629825592,17.7176399231,28.6114292145,54.0539970398,42.2546844482,6.2581381798,40.7796936035,44.6813011169,-13.6114301682,15.8372077942,10.7627191544
1.49743196038236E+018,32.1026077271,-14.6190881729,4.7835125923,50,49.0704956055,23.7854766846,39.9441223145,50.629825592,17.7176399231,31.5142822266,54.8852729797,42.2546844482,8.3846464157,40.7796936035,44.2682914734,-14.3371458054,15.8372077942,10.7627191544
1.49743196039169E+018,33.8695678711,-14.0598211288,4.7835125923,50,49.0704956055,23.7854766846,39.9441223145,50.629825592,17.7176399231,31.5142822266,54.8852729797,43.8421897888,8.3846464157,40.7796936035,43.8552856445,-14.3371458054,15.8372077942,10.7627191544
1.49743196040097E+018,34.7530441284,-14.0598211288,2.497508049,50,49.0704956055,23.7854766846,39.9441223145,50.629825592,17.7176399231,31.5142822266,54.8852729797,43.8421897888,8.3846464157,40.7796936035,43.5455284119,-14.3371458054,15.8372077942,10.7627191544
1.49743196041025E+018,35.6365203857,-14.0598211288,2.497508049,50,50.8811798096,23.7854766846,39.9441223145,51.4462547302,17.7176399231,32.965713501,54.8852729797,43.8421897888,9.4479045868,40.7796936035,43.132522583,-14.3371458054,15.8372077942,10.7627191544
1.49743196041955E+018,36.5200042725,-14.0598211288,2.497508049,50,49.9758453369,23.7854766846,39.9441223145,51.4462547302,17.7176399231,32.965713501,54.8852729797,43.8421897888,9.4479045868,41.4830780029,43.132522583,-14.3371458054,15.8372077942,10.7627191544
1.49743196042882E+018,37.4034805298,-14.0598211288,2.497508049,50,50.8811798096,24.6481132507,39.9441223145,51.4462547302,17.7176399231,32.965713501,54.8852729797,43.8421897888,9.4479045868,41.4830780029,43.132522583,-14.3371458054,15.8372077942,10.7627191544
1.49743196043811E+018,39.1704330444,-14.0598211288,2.497508049,50,50.8811798096,24.6481132507,39.9441223145,51.4462547302,17.7176399231,32.965713501,54.8852729797,43.8421897888,9.4479045868,41.4830780029,43.132522583,-14.3371458054,15.8372077942,10.7627191544
1.49743196044738E+018,40.0539169312,-14.0598211288,2.497508049,50,50.8811798096,24.6481132507,42.633518219,51.4462547302,17.7176399231,32.965713501,56.5478210449,43.8421897888,9.4479045868,41.4830780029,43.132522583,-14.3371458054,15.8372077942,10.7627191544
1.49743196045672E+018,41.8208694458,-14.0598211288,2.497508049,50,50.8811798096,24.6481132507,42.633518219,52.2626838684,17.7176399231,32.965713501,56.5478210449,43.8421897888,9.4479045868,41.4830780029,43.132522583,-14.3371458054,15.0724754333,10.7627191544
1.49743196046603E+018,42.7043533325,-14.0598211288,2.497508049,50,50.8811798096,24.6481132507,42.633518219,52.2626838684,17.7176399231,32.965713501,56.5478210449,43.8421897888,9.4479045868,41.4830780029,41.893497467,-14.3371458054,15.0724754333,10.7627191544
1.49743196047539E+018,43.5878295898,-14.0598211288,2.497508049,50,50.8811798096,24.6481132507,42.633518219,52.2626838684,14.7294082642,32.965713501,57.1712684631,43.8421897888,9.4479045868,41.4830780029,41.4804878235,-14.3371458054,15.0724754333,11.1572828293
1.4974319604847E+018,45.1339187622,-14.0598211288,2.497508049,50,50.8811798096,24.6481132507,42.633518219,53.8955345154,14.7294082642,35.8685760498,58.0025405884,43.8421897888,9.4479045868,41.4830780029,41.0674819946,-12.8857164383,15.0724754333,11.1572828293
1.49743196049402E+018,46.9008712769,-14.0598211288,-2.0745007992,50,50.8811798096,24.6481132507,42.633518219,54.7119636536,14.7294082642,35.8685760498,58.8338165283,43.8421897888,10.5111627579,41.4830780029,41.0674819946,-12.1600008011,15.0724754333,11.1572828293
1.49743196050329E+018,46.9008712769,-14.0598211288,-2.0745007992,50,50.8811798096,24.6481132507,42.633518219,55.5283927917,14.7294082642,37.3199958801,59.6650924683,43.8421897888,10.5111627579,41.4830780029,40.6544723511,-12.1600008011,15.0724754333,11.1572828293
1.4974319605125E+018,47.7843475342,-14.0598211288,-4.3604879379,50,50.8811798096,24.6481132507,42.633518219,55.5283927917,14.7294082642,35.8685760498,59.6650924683,45.2312507629,10.5111627579,41.4830780029,39.828453064,-12.1600008011,15.0724754333,11.1572828293
1.49743196052186E+018,48.6678314209,-14.0598211288,-4.3604879379,50,50.8811798096,25.5107555389,42.633518219,55.5283927917,14.7294082642,37.3199958801,59.6650924683,45.2312507629,10.5111627579,41.4830780029,39.4154472351,-12.1600008011,15.0724754333,11.1572828293
1.49743196053113E+018,48.6678314209,-14.0598211288,-6.6464924812,50,50.8811798096,25.5107555389,42.633518219,55.5283927917,20.7058811188,35.8685760498,59.6650924683,45.2312507629,10.5111627579,41.4830780029,39.0024375916,-10.708571434,14.498922348,11.1572828293
1.49743196054042E+018,49.5513076782,-14.0598211288,-6.6464924812,50,50.8811798096,25.5107555389,42.633518219,55.5283927917,20.7058811188,35.8685760498,59.6650924683,44.4375,10.5111627579,40.0763092041,39.0024375916,-9.9828557968,14.498922348,11.1572828293
1.49743196054961E+018,50.4347839355,-12.941286087,-11.2184839249,50,50.8811798096,25.5107555389,42.633518219,55.5283927917,23.6941108704,37.3199958801,61.3276405334,44.4375,10.5111627579,40.0763092041,39.0024375916,-9.2571458817,14.498922348,11.1572828293
1.49743196055887E+018,52.2017440796,-12.382019043,-15.7904930115,50,50.8811798096,23.7854766846,42.633518219,55.5283927917,23.6941108704,37.3199958801,62.1589012146,44.4375,10.5111627579,40.0763092041,37.7634162903,-8.5314302445,14.498922348,11.1572828293
1.49743196056809E+018,53.9686889648,-12.382019043,-20.3624839783,50,50.8811798096,23.7854766846,42.633518219,55.5283927917,26.682352066,38.4085769653,62.9901771545,44.4375,10.5111627579,40.0763092041,37.0406494141,-7.0799980164,14.498922348,11.1572828293
1.49743196057726E+018,55.7356491089,-11.8227519989,-24.9344940186,50,50.8811798096,23.7854766846,42.633518219,55.5283927917,26.682352066,39.8599967957,63.8214492798,44.4375,10.5111627579,40.0763092041,36.2146339417,-6.3542876244,13.7342014313,11.1572828293
1.49743196058646E+018,56.6191329956,-11.8227519989,-29.5064849854,50,50.8811798096,23.7854766846,42.633518219,54.7119636536,26.682352066,39.8599967957,64.6527252197,44.4375,12.6376714706,40.0763092041,35.8016281128,-5.0842876434,13.7342014313,11.1572828293
1.49743196059558E+018,58.165222168,-11.2634849548,-33.5069847107,50,50.8811798096,23.7854766846,42.633518219,54.7119636536,26.682352066,41.3114280701,64.6527252197,44.4375,12.6376714706,40.0763092041,34.9756088257,-2.9071457386,13.7342014313,11.1572828293
1.49743196060489E+018,58.165222168,-11.2634849548,-38.078994751,50,50.8811798096,23.7854766846,42.633518219,54.7119636536,26.682352066,42.7628593445,65.4840011597,44.4375,12.6376714706,40.0763092041,34.1495933533,-0.7299981713,13.7342014313,11.1572828293
1.4974319606141E+018,59.0486907959,-11.2634849548,-42.6509857178,50,50.8811798096,23.7854766846,42.633518219,54.7119636536,26.682352066,42.7628593445,65.4840011597,46.0249977112,13.7009296417,40.0763092041,32.9105682373,2.8985700607,13.7342014313,11.1572828293
1.49743196062334E+018,59.9321746826,-11.2634849548,-44.9369888306,50,50.8811798096,23.7854766846,42.633518219,54.7119636536,26.682352066,44.2142944336,66.3152770996,46.0249977112,14.7641878128,40.0763092041,31.6715431213,5.8014278412,13.7342014313,11.1572828293
1.49743196063262E+018,60.8156509399,-11.2634849548,-49.5089797974,50,50.8811798096,23.7854766846,45.3229370117,54.7119636536,32.6588134766,45.6657142639,67.1465454102,46.0249977112,14.7641878128,40.0763092041,30.8455295563,8.5228595734,13.7342014313,11.1572828293
1.49743196064185E+018,60.8156509399,-10.1449584961,-54.0809898376,50,50.8811798096,22.922832489,45.3229370117,54.7119636536,35.6470565796,47.1171455383,68.8090820312,45.2312507629,15.8274374008,38.8453865051,29.7097549438,11.4257173538,13.7342014313,11.1572828293
1.49743196065105E+018,60.8156509399,-10.1449584961,-56.3669929504,50,50.8811798096,22.922832489,45.3229370117,53.8955345154,35.6470565796,48.5685768127,69.6403579712,45.2312507629,16.6248855591,38.8453865051,28.4707317352,14.3285703659,13.7342014313,11.1572828293
1.49743196066027E+018,60.8156509399,-10.1449584961,-58.6529808044,50,50.8811798096,22.922832489,45.3229370117,53.8955345154,35.6470565796,50.0200080872,69.6403579712,44.4375,17.6881351471,38.1420021057,27.2317085266,16.5057182312,13.7342014313,11.1572828293
1.49743196066957E+018,60.8156509399,-10.1449584961,-60.9389877319,50,50.8811798096,22.922832489,45.3229370117,53.8955345154,35.6470565796,51.4714279175,70.2638168335,44.4375,18.7513942719,37.4386138916,26.4056911469,17.7757167816,13.7342014313,11.1572828293
1.49743196067878E+018,60.8156509399,-10.1449584961,-63.2249908447,50,50.8811798096,22.922832489,45.3229370117,53.8955345154,35.6470565796,52.9228591919,70.2638168335,45.2312507629,19.8146514893,36.7352333069,25.5796756744,19.2271442413,13.7342014313,11.1572828293
1.49743196068807E+018,62.582611084,-10.1449584961,-65.5109939575,50,50.8811798096,22.0601902008,45.3229370117,53.8955345154,35.6470565796,54.374294281,71.0950927734,45.2312507629,20.877910614,36.0318489075,24.753660202,20.6785755157,13.7342014313,11.1572828293
1.49743196069733E+018,62.582611084,-10.1449584961,-65.5109939575,50,51.7865257263,22.0601902008,45.3229370117,53.8955345154,40.8764648438,54.374294281,71.0950927734,46.0249977112,21.941160202,35.3284606934,24.0308952332,22.1300010681,13.7342014313,10.7627191544
1.49743196070661E+018,62.582611084,-10.1449584961,-65.5109939575,50,51.7865257263,22.0601902008,45.3229370117,53.8955345154,40.8764648438,55.8257141113,71.0950927734,46.8187484741,21.941160202,34.6250801086,23.2048778534,23.5814342499,13.7342014313,10.7627191544
1.49743196071586E+018,62.582611084,-11.2634849548,-65.5109939575,50,51.7865257263,22.0601902008,45.3229370117,53.8955345154,40.8764648438,57.2771453857,71.0950927734,46.8187484741,23.0044174194,33.9216957092,22.7918682098,24.307144165,13.7342014313,10.7627191544
1.49743196072511E+018,62.582611084,-12.941286087,-65.5109939575,50,51.7865257263,22.0601902008,47.3399887085,53.8955345154,40.8764648438,57.2771453857,71.0950927734,47.6124992371,24.0676765442,33.2183074951,22.3788661957,25.0328598022,13.7342014313,10.7627191544
1.49743196073435E+018,62.582611084,-14.6190881729,-60.9389877319,50,51.7865257263,22.0601902008,47.3399887085,53.8955345154,40.8764648438,58.7285766602,71.0950927734,47.6124992371,24.0676765442,32.5149230957,21.5528469086,25.7585754395,13.7342014313,10.7627191544
1.49743196074358E+018,62.582611084,-16.2968826294,-56.3669929504,50,52.4655418396,22.0601902008,47.3399887085,53.8955345154,40.8764648438,58.7285766602,71.0950927734,48.40625,25.1309337616,31.1081562042,21.1398391724,27.2100009918,13.7342014313,10.3681564331
1.49743196075274E+018,62.582611084,-18.3941268921,-51.7949867249,50,52.4655418396,22.0601902008,47.3399887085,53.8955345154,40.8764648438,60.1800079346,70.2638168335,48.40625,26.194185257,30.4047698975,19.900812149,27.935716629,13.7342014313,10.3681564331
1.49743196076195E+018,62.582611084,-20.6311950684,-49.5089797974,50,52.4655418396,22.0601902008,47.3399887085,53.8955345154,40.8764648438,61.2685775757,70.2638168335,49.1999969482,27.2574424744,29.7013835907,19.0748004913,29.2057170868,13.7342014313,10.3681564331
1.49743196077123E+018,60.8156509399,-22.3089981079,-44.9369888306,50,52.4655418396,22.0601902008,47.3399887085,53.0791053772,40.8764648438,62.7200088501,70.2638168335,49.9937477112,28.3207015991,28.998003006,17.835773468,30.6571445465,13.7342014313,10.3681564331
1.49743196078037E+018,59.9321746826,-23.4275245667,-44.9369888306,50,54.2762374878,22.0601902008,47.3399887085,53.0791053772,40.8764648438,64.1714324951,70.2638168335,49.9937477112,29.3839511871,28.4704608917,17.1130104065,32.1085739136,13.7342014313,10.3681564331
1.49743196078958E+018,59.9321746826,-24.5460586548,-42.6509857178,50,55.1815872192,23.7854766846,47.3399887085,53.0791053772,40.8764648438,64.1714324951,70.2638168335,50.7875022888,29.3839511871,27.7670783997,16.2869949341,32.8342895508,13.7342014313,10.3681564331
1.49743196079876E+018,59.0486907959,-25.1053256989,-42.6509857178,50,55.1815872192,23.7854766846,47.3399887085,53.0791053772,40.8764648438,65.6228637695,71.0950927734,51.5812492371,30.4472084045,27.0636940002,15.8739852905,33.5600013733,13.7342014313,10.3681564331
1.49743196080798E+018,59.0486907959,-25.6645927429,-40.3649978638,50,55.1815872192,24.6481132507,47.3399887085,53.0791053772,40.8764648438,65.6228637695,71.0950927734,52.375,30.4472084045,26.3603076935,15.460975647,34.2857170105,13.7342014313,10.3681564331
1.49743196081717E+018,59.0486907959,-26.0840377808,-40.3649978638,50,55.1815872192,26.3733997345,47.3399887085,53.0791053772,40.8764648438,67.0742950439,71.0950927734,52.375,31.5104675293,25.6569213867,15.460975647,35.0114326477,13.7342014313,9.9735927582
1.49743196082642E+018,59.0486907959,-26.6433048248,-38.078994751,50,55.1815872192,27.2360363007,47.3399887085,53.0791053772,40.8764648438,67.0742950439,71.0950927734,52.375,31.5104675293,25.6569213867,15.460975647,35.7371482849,13.7342014313,9.9735927582
1.49743196083573E+018,59.0486907959,-27.2025718689,-35.7929878235,50,55.1815872192,28.0986785889,47.3399887085,53.0791053772,40.8764648438,67.0742950439,69.6403579712,52.375,31.5104675293,24.953540802,15.460975647,36.4628639221,13.7342014313,9.9735927582
1.49743196084501E+018,57.2817459106,-27.2025718689,-31.2209968567,50,55.1815872192,29.8239650726,47.3399887085,53.0791053772,40.8764648438,67.0742950439,69.6403579712,52.375,31.5104675293,24.953540802,15.460975647,36.4628639221,12.9694671631,9.9735927582
1.49743196085427E+018,56.6191329956,-27.761838913,-29.5064849854,50,55.1815872192,30.4709453583,47.3399887085,54.7119636536,40.8764648438,67.0742950439,68.8090820312,52.375,31.5104675293,24.2501544952,15.460975647,37.1885681152,12.9694671631,9.9735927582
1.49743196086347E+018,55.7356491089,-27.761838913,-24.9344940186,50,55.1815872192,31.3335876465,47.3399887085,54.7119636536,40.8764648438,67.0742950439,67.9778213501,52.375,31.5104675293,23.5467681885,15.460975647,37.9142875671,12.9694671631,9.9735927582
1.4974319608728E+018,54.8521728516,-27.761838913,-22.6484889984,50,55.1815872192,32.1962242126,47.3399887085,54.7119636536,40.8764648438,67.0742950439,67.1465454102,53.1687507629,31.5104675293,23.5467681885,15.460975647,38.6400032043,12.9694671631,9.9735927582
1.49743196088188E+018,53.9686889648,-27.761838913,-20.3624839783,50,55.1815872192,33.0588684082,47.3399887085,55.5283927917,40.8764648438,67.0742950439,66.3152770996,53.1687507629,33.3711662292,22.8433876038,15.460975647,38.6400032043,12.9694671631,9.9735927582
1.49743196089114E+018,53.0852203369,-27.761838913,-15.7904930115,50,55.1815872192,33.9215126038,47.3399887085,55.5283927917,40.8764648438,67.0742950439,65.4840011597,53.1687507629,33.3711662292,22.8433876038,16.2869949341,39.3657188416,12.9694671631,9.184466362
1.49743196090037E+018,51.3182601929,-27.761838913,-13.504488945,50,55.1815872192,33.9215126038,47.3399887085,55.5283927917,40.8764648438,67.0742950439,64.6527252197,53.1687507629,33.3711662292,22.140001297,15.8739852905,39.3657188416,12.9694671631,9.184466362
1.49743196090963E+018,49.5513076782,-27.761838913,-11.2184839249,50,55.1815872192,33.9215126038,47.3399887085,55.5283927917,40.8764648438,67.0742950439,63.8214492798,53.1687507629,33.3711662292,22.140001297,16.2869949341,39.9100074768,12.9694671631,9.184466362
1.49743196091887E+018,48.6678314209,-26.6433048248,-8.9324970245,50,55.1815872192,33.9215126038,47.3399887085,55.5283927917,40.8764648438,67.0742950439,63.8214492798,53.1687507629,33.3711662292,22.140001297,16.2869949341,39.9100074768,12.9694671631,8.7899036408
1.49743196092808E+018,47.7843475342,-26.6433048248,-6.6464924812,50,55.1815872192,33.9215126038,47.3399887085,55.5283927917,37.8882369995,67.0742950439,63.8214492798,53.1687507629,33.3711662292,22.140001297,15.8739852905,40.635723114,13.7342014313,8.7899036408
1.49743196093734E+018,46.9008712769,-26.0840377808,-4.3604879379,50,55.1815872192,33.9215126038,47.3399887085,55.5283927917,37.8882369995,67.0742950439,63.8214492798,53.1687507629,33.3711662292,22.140001297,15.8739852905,41.3614273071,13.7342014313,8.7899036408
1.49743196094645E+018,46.9008712769,-25.6645927429,-4.3604879379,50,55.1815872192,33.9215126038,47.3399887085,56.9571495056,37.8882369995,67.0742950439,63.8214492798,53.1687507629,33.3711662292,22.140001297,15.460975647,42.0871429443,13.7342014313,8.7899036408
1.49743196095573E+018,46.9008712769,-25.1053256989,-4.3604879379,50,55.1815872192,33.9215126038,47.3399887085,56.9571495056,37.8882369995,67.0742950439,63.8214492798,53.1687507629,33.3711662292,22.140001297,15.460975647,42.8128585815,13.7342014313,8.7899036408
1.49743196096498E+018,46.9008712769,-24.5460586548,-4.3604879379,50,55.1815872192,33.9215126038,47.3399887085,56.9571495056,37.8882369995,67.0742950439,63.8214492798,53.1687507629,33.3711662292,22.140001297,15.460975647,44.264289856,13.7342014313,8.7899036408
1.49743196097426E+018,46.9008712769,-23.9867916107,-4.3604879379,50,55.1815872192,33.9215126038,47.3399887085,56.9571495056,37.8882369995,67.0742950439,62.1589012146,53.1687507629,34.4344215393,22.140001297,15.460975647,45.7157211304,13.7342014313,8.7899036408
1.4974319609836E+018,46.9008712769,-23.4275245667,-8.9324970245,50,55.1815872192,32.1962242126,47.3399887085,56.9571495056,37.8882369995,67.0742950439,62.1589012146,53.1687507629,34.4344215393,22.140001297,15.460975647,47.8928604126,13.7342014313,8.7899036408
1.4974319609929E+018,46.9008712769,-22.3089981079,-11.2184839249,50,55.1815872192,32.1962242126,47.3399887085,56.9571495056,37.8882369995,67.0742950439,61.3276405334,53.1687507629,34.4344215393,22.140001297,15.460975647,49.344291687,13.7342014313,8.4939804077
1.4974319610022E+018,48.6678314209,-21.7497310638,-13.504488945,50,55.1815872192,31.3335876465,47.3399887085,56.9571495056,37.8882369995,68.5257263184,61.3276405334,53.1687507629,34.4344215393,22.140001297,15.460975647,50.7957229614,13.7342014313,8.4939804077
1.49743196101135E+018,49.5513076782,-21.1904640198,-15.7904930115,50,55.1815872192,31.3335876465,47.3399887085,56.9571495056,37.8882369995,68.5257263184,60.4963645935,53.1687507629,34.4344215393,22.140001297,15.460975647,52.0657157898,13.7342014313,8.4939804077
1.49743196102061E+018,50.4347839355,-21.1904640198,-20.3624839783,50,55.1815872192,30.4709453583,47.3399887085,56.9571495056,37.8882369995,68.5257263184,60.4963645935,53.1687507629,35.4976730347,22.140001297,16.2869949341,52.791431427,14.498922348,8.4939804077
1.49743196102979E+018,51.3182601929,-20.6311950684,-22.6484889984,50,55.1815872192,29.8239650726,47.3399887085,56.9571495056,40.8764648438,68.5257263184,59.6650924683,53.1687507629,35.4976730347,22.140001297,16.2869949341,53.5171508789,14.498922348,8.4939804077
1.49743196103904E+018,53.0852203369,-20.0719299316,-27.2204971313,50,55.1815872192,28.9613227844,47.3399887085,56.9571495056,40.8764648438,68.5257263184,59.6650924683,53.1687507629,35.4976730347,22.140001297,16.7000045776,54.2428665161,14.498922348,8.4939804077
1.49743196104824E+018,54.8521728516,-19.5126609802,-31.2209968567,50,55.1815872192,28.0986785889,47.3399887085,55.5283927917,40.8764648438,68.5257263184,59.6650924683,53.1687507629,35.4976730347,22.140001297,16.7000045776,54.2428665161,14.498922348,9.184466362
1.4974319610575E+018,55.7356491089,-18.9533958435,-33.5069847107,50,55.1815872192,27.2360363007,47.3399887085,55.5283927917,40.8764648438,68.5257263184,59.6650924683,53.1687507629,35.4976730347,22.140001297,16.7000045776,54.2428665161,14.498922348,9.184466362
1.49743196106674E+018,56.6191329956,-18.3941268921,-38.078994751,50,55.1815872192,27.2360363007,47.3399887085,54.7119636536,40.8764648438,68.5257263184,59.6650924683,53.1687507629,35.4976730347,20.7332286835,16.7000045776,54.2428665161,14.498922348,9.184466362
1.49743196107601E+018,58.165222168,-17.8348693848,-42.6509857178,50,55.1815872192,26.3733997345,47.3399887085,54.7119636536,43.8646965027,68.5257263184,58.0025405884,53.1687507629,34.4344215393,20.7332286835,16.7000045776,54.2428665161,14.498922348,9.184466362
1.49743196108513E+018,59.0486907959,-17.2756004333,-47.2229919434,50,55.1815872192,25.5107555389,47.3399887085,53.8955345154,43.8646965027,68.5257263184,58.0025405884,53.1687507629,34.4344215393,20.0298480988,16.7000045776,54.2428665161,14.498922348,9.184466362
1.49743196109432E+018,59.9321746826,-16.8561477661,-49.5089797974,50,55.1815872192,24.6481132507,47.3399887085,53.0791053772,43.8646965027,68.5257263184,57.1712684631,53.1687507629,34.4344215393,19.326461792,16.7000045776,54.2428665161,14.498922348,9.184466362
1.49743196110354E+018,60.8156509399,-16.8561477661,-54.0809898376,50,55.1815872192,23.7854766846,47.3399887085,52.2626838684,43.8646965027,68.5257263184,57.1712684631,53.1687507629,34.4344215393,19.326461792,15.460975647,52.791431427,14.498922348,9.184466362
1.4974319611127E+018,61.6991348267,-16.2968826294,-56.3669929504,50,55.1815872192,22.0601902008,47.3399887085,51.4462547302,43.8646965027,68.5257263184,56.5478210449,51.5812492371,34.4344215393,18.6230754852,15.460975647,52.791431427,14.498922348,9.184466362
1.49743196112187E+018,62.582611084,-16.2968826294,-58.6529808044,50,55.1815872192,21.1975460052,47.3399887085,49.8133964539,43.8646965027,68.5257263184,55.7165489197,50.7875022888,34.4344215393,17.9196891785,14.6349563599,52.0657157898,14.498922348,9.184466362
1.49743196113115E+018,63.4660949707,-16.2968826294,-60.9389877319,50,55.1815872192,20.3349094391,47.3399887085,48.996963501,43.8646965027,68.5257263184,55.7165489197,49.9937477112,34.4344215393,17.3921527863,14.221950531,51.3400001526,14.498922348,9.5790300369
1.49743196114042E+018,64.349571228,-16.2968826294,-63.2249908447,50,55.1815872192,19.4722652435,47.3399887085,48.1805343628,43.8646965027,68.5257263184,54.8852729797,49.1999969482,34.4344215393,16.6887664795,13.8089447021,51.3400001526,14.498922348,9.5790300369
1.49743196114965E+018,65.233039856,-16.2968826294,-65.5109939575,50,55.1815872192,17.7469806671,52.7188224792,47.3641052246,37.8882369995,71.4285736084,54.8852729797,47.6124992371,34.4344215393,15.9853858948,13.3959388733,51.3400001526,14.498922348,9.5790300369
1.49743196115882E+018,66.1165161133,-15.1783466339,-67.2254867554,50,56.9922714233,17.7469806671,52.7188224792,46.5476875305,37.8882369995,71.4285736084,54.0539970398,46.8187484741,34.4344215393,15.2820005417,12.9829292297,51.3400001526,14.498922348,9.5790300369
1.49743196116798E+018,67,-15.1783466339,-69.5114974976,50,56.9922714233,16.2373580933,52.7188224792,45.7312545776,37.8882369995,72.8800048828,54.0539970398,45.2312507629,34.4344215393,14.5786142349,12.5699195862,51.3400001526,14.498922348,9.5790300369
1.49743196117713E+018,67.8834762573,-14.6190881729,-71.7974777222,50,56.9922714233,16.2373580933,52.7188224792,44.0983963013,37.8882369995,72.8800048828,53.2227249146,44.4375,34.4344215393,13.8752336502,12.1569099426,51.3400001526,14.498922348,9.5790300369
1.4974319611863E+018,68.7669525146,-14.6190881729,-74.0834884644,50,56.9922714233,15.3747205734,52.7188224792,43.4860687256,37.8882369995,74.3314437866,52.3914489746,43.8421897888,34.4344215393,13.8752336502,11.7439002991,51.3400001526,14.498922348,9.5790300369
1.49743196119554E+018,69.6504364014,-14.0598211288,-76.3694915771,50,56.9922714233,15.3747205734,52.7188224792,42.6696395874,37.8882369995,74.3314437866,52.3914489746,42.2546844482,34.4344215393,13.1718473434,11.3308944702,51.3400001526,14.498922348,9.5790300369
1.49743196120486E+018,70.5339202881,-14.0598211288,-76.3694915771,50,56.9922714233,14.5120773315,52.7188224792,41.8532218933,32.6588134766,75.782875061,51.5601768494,41.4609413147,34.4344215393,12.4684610367,11.0211410522,51.3400001526,14.498922348,9.5790300369
1.49743196121403E+018,71.1965179443,-14.0598211288,-78.6554794312,50,56.9922714233,14.5120773315,58.0976333618,41.0367927551,32.6588134766,75.782875061,50.7289123535,40.6671905518,34.4344215393,11.7650747299,11.0211410522,50.0700073242,14.498922348,9.5790300369
1.49743196122322E+018,72.0800018311,-14.0598211288,-80.9414825439,50,56.9922714233,13.6494340897,58.0976333618,40.2203598022,29.670583725,77.2342834473,50.7289123535,39.8734359741,34.4344215393,11.0616941452,10.6081314087,49.344291687,14.498922348,9.5790300369
1.49743196123244E+018,72.0800018311,-14.0598211288,-80.9414825439,50,57.8976173401,12.7867908478,58.0976333618,39.4039306641,29.670583725,77.2342834473,49.8976402283,39.8734359741,34.4344215393,11.0616941452,10.6081314087,49.344291687,14.498922348,9.5790300369
1.4974319612417E+018,72.9634857178,-14.0598211288,-83.2274856567,50,57.8976173401,12.7867908478,58.0976333618,38.5875015259,26.682352066,78.6857147217,49.0663642883,39.0796852112,34.4344215393,10.3583078384,10.6081314087,49.344291687,14.498922348,9.5790300369
1.49743196125088E+018,72.9634857178,-14.0598211288,-83.2274856567,50,57.8976173401,12.7867908478,58.0976333618,38.5875015259,26.682352066,78.6857147217,47.4038162231,39.0796852112,34.4344215393,9.6549224854,10.6081314087,49.344291687,14.498922348,9.5790300369
1.49743196126014E+018,72.9634857178,-13.5005531311,-85.5134887695,50,57.8976173401,12.7867908478,58.0976333618,37.771068573,23.6941108704,78.6857147217,46.5725402832,39.0796852112,34.4344215393,8.9515361786,10.6081314087,49.344291687,14.498922348,9.5790300369
1.49743196126949E+018,72.9634857178,-13.5005531311,-85.5134887695,50,57.8976173401,12.7867908478,58.0976333618,36.9546394348,23.6941108704,78.6857147217,44.9100036621,39.0796852112,34.4344215393,8.2481555939,10.6081314087,47.8928604126,14.498922348,9.5790300369
1.49743196127879E+018,72.9634857178,-13.5005531311,-85.5134887695,50,57.8976173401,12.7867908478,58.0976333618,36.9546394348,20.7058811188,78.6857147217,44.0787315369,39.0796852112,34.4344215393,8.2481555939,10.6081314087,47.8928604126,14.498922348,8.7899036408
1.49743196128819E+018,72.9634857178,-14.6190881729,-85.5134887695,50,57.8976173401,12.7867908478,58.0976333618,36.1382102966,17.7176399231,78.6857147217,44.0787315369,39.0796852112,32.5737266541,8.2481555939,11.3308944702,47.1671447754,14.498922348,8.7899036408
1.49743196129753E+018,72.9634857178,-15.1783466339,-85.5134887695,50,57.8976173401,12.7867908478,58.0976333618,36.1382102966,17.7176399231,78.6857147217,43.4552726746,39.0796852112,32.5737266541,8.2481555939,11.0211410522,46.4414291382,14.498922348,8.7899036408
1.49743196130685E+018,73.8469543457,-15.7376146317,-85.5134887695,50,57.8976173401,12.7867908478,60.7870521545,35.3217926025,14.7294082642,78.6857147217,43.4552726746,37.4921875,32.5737266541,8.2481555939,11.0211410522,46.4414291382,14.498922348,8.4939804077
1.49743196131615E+018,73.8469543457,-16.8561477661,-85.5134887695,50,57.8976173401,12.7867908478,60.7870521545,35.3217926025,14.7294082642,81.5885772705,43.4552726746,37.4921875,32.5737266541,8.2481555939,11.0211410522,46.4414291382,14.498922348,8.4939804077
1.49743196132534E+018,73.8469543457,-17.2756004333,-85.5134887695,50,58.8029670715,12.7867908478,60.7870521545,34.5053596497,11.7411689758,81.5885772705,43.4552726746,36.6984367371,32.5737266541,8.2481555939,11.0211410522,46.4414291382,14.498922348,8.4939804077
1.49743196133469E+018,73.8469543457,-18.3941268921,-80.9414825439,50,58.8029670715,12.7867908478,60.7870521545,34.5053596497,8.7529258728,82.677154541,43.4552726746,36.6984367371,32.5737266541,8.2481555939,11.0211410522,46.4414291382,15.0724754333,8.4939804077
1.49743196134399E+018,73.8469543457,-18.9533958435,-78.6554794312,50,58.8029670715,12.7867908478,60.7870521545,34.5053596497,8.7529258728,82.677154541,43.4552726746,35.9046859741,32.5737266541,8.2481555939,11.0211410522,46.4414291382,15.0724754333,8.4939804077
1.49743196135335E+018,73.8469543457,-20.0719299316,-76.3694915771,50,58.8029670715,14.5120773315,60.7870521545,34.5053596497,8.7529258728,82.677154541,43.4552726746,35.9046859741,32.5737266541,8.2481555939,11.0211410522,44.9900054932,15.0724754333,8.4939804077
1.4974319613628E+018,73.8469543457,-21.1904640198,-71.7974777222,50,58.8029670715,14.5120773315,63.4764671326,34.5053596497,8.7529258728,82.677154541,43.4552726746,35.1109390259,32.5737266541,9.6549224854,11.0211410522,44.9900054932,15.0724754333,8.4939804077
1.49743196137221E+018,73.8469543457,-21.7497310638,-67.2254867554,50,60.6136627197,15.3747205734,63.4764671326,34.5053596497,8.7529258728,82.677154541,43.4552726746,35.1109390259,33.3711662292,9.6549224854,10.6081314087,44.264289856,15.0724754333,8.4939804077
1.49743196138148E+018,72.0800018311,-22.8682575226,-65.5109939575,50,60.6136627197,16.2373580933,63.4764671326,34.5053596497,8.7529258728,82.677154541,42.6239967346,35.1109390259,33.3711662292,10.3583078384,10.6081314087,43.5385742188,15.0724754333,8.4939804077
1.49743196139076E+018,72.0800018311,-23.9867916107,-58.6529808044,50,60.6136627197,16.2373580933,63.4764671326,34.5053596497,2.7764663696,82.677154541,42.6239967346,35.1109390259,33.3711662292,10.3583078384,11.3308944702,43.5385742188,15.0724754333,8.0994186401
1.49743196140001E+018,71.1965179443,-24.5460586548,-56.3669929504,50,60.6136627197,16.8843421936,63.4764671326,34.5053596497,2.7764663696,84.1285858154,42.6239967346,35.1109390259,33.3711662292,11.0616941452,11.7439002991,42.8128585815,14.498922348,8.0994186401
1.49743196140926E+018,71.1965179443,-25.6645927429,-51.7949867249,50,60.6136627197,16.8843421936,63.4764671326,34.5053596497,2.7764663696,84.1285858154,42.6239967346,35.1109390259,33.3711662292,12.4684610367,12.5699195862,42.0871429443,14.498922348,8.0994186401
1.49743196141852E+018,70.5339202881,-25.6645927429,-47.2229919434,50,60.6136627197,16.8843421936,63.4764671326,34.5053596497,2.7764663696,84.1285858154,42.6239967346,35.1109390259,31.5104675293,13.1718473434,13.3959388733,41.3614273071,14.498922348,8.0994186401
1.49743196142781E+018,69.6504364014,-26.6433048248,-42.6509857178,50,60.6136627197,16.8843421936,63.4764671326,34.5053596497,2.7764663696,84.1285858154,42.6239967346,35.1109390259,31.5104675293,14.5786142349,14.221950531,39.9100074768,14.498922348,8.0994186401
1.49743196143708E+018,68.7669525146,-26.6433048248,-38.078994751,50,60.6136627197,16.8843421936,63.4764671326,34.5053596497,2.7764663696,84.1285858154,42.6239967346,35.1109390259,30.4472084045,15.9853858948,15.460975647,37.9142875671,14.498922348,8.0994186401
1.49743196144634E+018,67.8834762573,-27.2025718689,-33.5069847107,50,60.6136627197,16.8843421936,63.4764671326,34.5053596497,2.7764663696,81.5885772705,42.6239967346,36.6984367371,29.3839511871,17.3921527863,17.1130104065,35.7371482849,12.9694671631,7.7048544884
1.49743196145556E+018,67.8834762573,-27.2025718689,-29.5064849854,50,60.6136627197,18.6096229553,63.4764671326,34.5053596497,2.7764663696,81.5885772705,42.6239967346,36.6984367371,29.3839511871,18.6230754852,18.6617908478,33.5600013733,12.9694671631,7.7048544884
1.49743196146475E+018,67,-27.761838913,-24.9344940186,50,60.6136627197,18.6096229553,63.4764671326,34.5053596497,2.7764663696,80.1371459961,42.6239967346,38.2859382629,27.2574424744,20.0298480988,20.7268295288,30.6571445465,12.9694671631,7.7048544884
1.49743196147389E+018,66.1165161133,-27.761838913,-22.6484889984,50,60.6136627197,19.4722652435,63.4764671326,34.5053596497,2.7764663696,77.2342834473,42.6239967346,39.8734359741,26.194185257,21.4366149902,23.2048778534,27.2100009918,12.2047348022,7.7048544884
1.4974319614831E+018,66.1165161133,-27.761838913,-20.3624839783,50,60.6136627197,20.3349094391,63.4764671326,34.5053596497,2.7764663696,75.782875061,43.4552726746,41.4609413147,24.0676765442,22.140001297,25.5796756744,24.307144165,12.2047348022,7.7048544884
1.4974319614923E+018,65.233039856,-27.761838913,-15.7904930115,50,60.6136627197,20.3349094391,63.4764671326,36.1382102966,2.7764663696,74.3314437866,43.4552726746,42.2546844482,23.0044174194,22.8433876038,27.2317085266,21.4042854309,12.2047348022,7.7048544884
1.49743196150152E+018,64.349571228,-27.761838913,-13.504488945,50,60.6136627197,20.3349094391,63.4764671326,36.1382102966,2.7764663696,72.8800048828,43.4552726746,43.0484390259,21.941160202,23.5467681885,29.296749115,18.5014286041,12.2047348022,8.4939804077
1.49743196151078E+018,63.4660949707,-27.761838913,-11.2184839249,50,60.6136627197,20.3349094391,63.4764671326,36.9546394348,2.7764663696,71.4285736084,43.4552726746,43.8421897888,20.877910614,24.953540802,30.535774231,16.5057182312,12.2047348022,8.4939804077
1.49743196152009E+018,61.6991348267,-27.761838913,-8.9324970245,50,60.6136627197,20.3349094391,58.0976333618,36.9546394348,2.7764663696,69.977142334,43.4552726746,43.8421897888,18.7513942719,25.6569213867,32.0845527649,14.3285703659,12.2047348022,8.4939804077
1.49743196152933E+018,59.9321746826,-26.0840377808,-6.6464924812,50,60.6136627197,20.3349094391,58.0976333618,36.9546394348,2.7764663696,68.5257263184,44.9100036621,43.8421897888,17.6881351471,25.6569213867,33.3235778809,12.8771438599,10.6752700806,8.7899036408
1.49743196153862E+018,58.165222168,-25.6645927429,-2.0745007992,50,60.6136627197,22.0601902008,58.0976333618,36.9546394348,2.7764663696,67.0742950439,44.9100036621,43.8421897888,16.6248855591,26.3603076935,34.5626029968,11.4257173538,10.6752700806,8.7899036408
1.49743196154788E+018,55.7356491089,-24.5460586548,0.2115036845,50,59.708316803,22.0601902008,58.0976333618,36.9546394348,2.7764663696,65.6228637695,44.9100036621,43.8421897888,15.8274374008,26.3603076935,35.8016281128,10.7000017166,9.9105377197,9.184466362
1.49743196155716E+018,53.0852203369,-23.9867916107,2.497508049,50,59.708316803,22.922832489,58.0976333618,36.9546394348,2.7764663696,64.1714324951,45.741268158,42.2546844482,14.7641878128,27.0636940002,36.6276397705,10.7000017166,9.9105377197,9.184466362
1.49743196156644E+018,50.4347839355,-22.8682575226,4.7835125923,50,59.708316803,22.922832489,58.0976333618,38.5875015259,-3.2000160217,62.7200088501,45.741268158,42.2546844482,14.7641878128,27.0636940002,37.7634162903,9.9742860794,9.9105377197,9.184466362
1.4974319615757E+018,47.7843475342,-21.7497310638,6.4980072975,50,59.708316803,22.922832489,58.0976333618,38.5875015259,-3.2000160217,60.1800079346,45.741268158,41.4609413147,13.7009296417,27.0636940002,38.5894317627,9.9742860794,9.9105377197,9.184466362
1.497431961585E+018,44.2504348755,-21.1904640198,6.4980072975,50,59.708316803,22.922832489,58.0976333618,38.5875015259,-6.1882362366,58.7285766602,45.741268158,41.4609413147,12.6376714706,27.0636940002,40.2414627075,9.9742860794,9.9105377197,9.184466362
1.49743196159432E+018,41.8208694458,-20.0719299316,8.7840118408,50,57.8976173401,22.922832489,55.4082374573,39.4039306641,-9.1764755249,57.2771453857,45.741268158,40.6671905518,11.5744132996,27.0636940002,41.4804878235,9.9742860794,9.9105377197,9.184466362
1.49743196160363E+018,39.1704330444,-19.5126609802,8.7840118408,50,58.8029670715,22.922832489,55.4082374573,38.5875015259,-14.4058914185,55.8257141113,45.741268158,39.8734359741,10.5111627579,27.0636940002,42.7195129395,9.9742860794,9.9105377197,9.184466362
1.49743196161286E+018,37.4034805298,-18.3941268921,8.7840118408,50,57.8976173401,22.922832489,55.4082374573,39.4039306641,-17.3941268921,54.374294281,45.741268158,39.0796852112,9.4479045868,27.0636940002,43.8552856445,8.5228595734,9.9105377197,9.5790300369
1.49743196162217E+018,34.7530441284,-17.8348693848,8.7840118408,50,57.8976173401,22.922832489,55.4082374573,39.4039306641,-20.3823471069,52.9228591919,46.5725402832,38.2859382629,9.4479045868,27.0636940002,45.0943069458,7.0714278221,9.9105377197,9.5790300369
1.49743196163148E+018,32.9860916138,-16.8561477661,8.7840118408,50,57.8976173401,21.1975460052,55.4082374573,39.4039306641,-26.358833313,51.4714279175,46.5725402832,36.6984367371,8.3846464157,27.7670783997,46.3333358765,5.8014278412,9.9105377197,9.5790300369
1.49743196164081E+018,30.3356552124,-16.2968826294,13.3560037613,50,57.8976173401,21.1975460052,52.7188224792,39.4039306641,-29.347076416,50.0200080872,46.5725402832,36.6984367371,7.3213963509,27.7670783997,47.1593475342,5.075712204,9.9105377197,9.5790300369
1.49743196165005E+018,28.78956604,-15.7376146317,15.6420078278,50,57.8976173401,20.3349094391,52.7188224792,39.4039306641,-35.3235321045,48.5685768127,46.5725402832,35.1109390259,7.3213963509,27.7670783997,47.9853668213,4.350001812,9.9105377197,9.5790300369
1.49743196165932E+018,27.022605896,-15.1783466339,17.9280128479,50,57.8976173401,20.3349094391,52.7188224792,39.4039306641,-38.3117752075,48.5685768127,46.5725402832,34.3171882629,7.3213963509,27.7670783997,48.8113822937,3.6242859364,9.9105377197,10.3681564331
1.49743196166872E+018,25.2556533813,-14.0598211288,20.2139987946,50,57.8976173401,20.3349094391,52.7188224792,39.4039306641,-41.3000183105,48.5685768127,48.2350883484,33.5234375,7.3213963509,27.7670783997,48.8113822937,3.6242859364,10.6752700806,10.3681564331
1.49743196167793E+018,24.372177124,-13.5005531311,22.5000038147,50,58.8029670715,20.3349094391,52.7188224792,39.4039306641,-44.2882385254,48.5685768127,48.2350883484,33.5234375,7.3213963509,27.7670783997,48.8113822937,3.6242859364,10.6752700806,10.3681564331
1.49743196168724E+018,23.4886932373,-12.941286087,24.7860088348,50,58.8029670715,18.6096229553,52.7188224792,40.2203598022,-44.2882385254,48.5685768127,48.2350883484,33.5234375,7.3213963509,27.7670783997,48.8113822937,3.6242859364,10.6752700806,10.3681564331
1.49743196169652E+018,21.7217407227,-11.8227519989,29.3580169678,50,58.8029670715,18.6096229553,52.7188224792,40.2203598022,-44.2882385254,48.5685768127,48.2350883484,33.5234375,7.3213963509,28.4704608917,48.8113822937,3.6242859364,10.6752700806,10.3681564331
1.49743196170575E+018,19.9547805786,-11.2634849548,31.6439876556,50,58.8029670715,17.7469806671,52.7188224792,40.2203598022,-44.2882385254,48.5685768127,48.2350883484,33.5234375,7.3213963509,28.4704608917,48.8113822937,3.6242859364,9.1458034515,10.3681564331
1.49743196171496E+018,19.0713043213,-10.7042255402,33.9299926758,50,58.8029670715,16.8843421936,52.7188224792,40.2203598022,-44.2882385254,45.6657142639,48.2350883484,33.5234375,7.3213963509,28.4704608917,48.8113822937,3.6242859364,9.1458034515,10.3681564331
1.49743196172417E+018,17.3043441772,-9.585691452,36.2159957886,50,58.8029670715,16.2373580933,52.7188224792,40.2203598022,-44.2882385254,45.6657142639,48.2350883484,31.9359378815,7.3213963509,28.4704608917,48.8113822937,3.6242859364,8.3810825348,10.3681564331
1.49743196173343E+018,16.4208679199,-9.026424408,36.2159957886,50,56.9922714233,16.2373580933,52.7188224792,40.2203598022,-44.2882385254,44.2142944336,48.2350883484,31.9359378815,7.3213963509,28.4704608917,48.8113822937,3.6242859364,8.3810825348,10.3681564331
1.49743196174263E+018,15.7582626343,-8.4671573639,38.5019989014,50,56.9922714233,16.2373580933,52.7188224792,40.2203598022,-44.2882385254,44.2142944336,48.2350883484,31.9359378815,7.3213963509,29.7013835907,48.8113822937,3.6242859364,7.6163520813,10.3681564331
1.4974319617519E+018,14.8747787476,-8.0477046967,38.5019989014,50,56.9922714233,16.2373580933,52.7188224792,40.2203598022,-44.2882385254,44.2142944336,48.2350883484,31.9359378815,7.3213963509,29.7013835907,48.8113822937,3.6242859364,7.6163520813,10.3681564331
1.49743196176109E+018,13.9913101196,-7.488445282,40.2165107727,50,56.9922714233,16.2373580933,52.7188224792,40.2203598022,-44.2882385254,44.2142944336,48.2350883484,31.9359378815,7.3213963509,29.7013835907,48.8113822937,3.6242859364,7.6163520813,10.7627191544
1.4974319617704E+018,13.1078262329,-6.9291782379,40.2165107727,50,56.9922714233,16.2373580933,52.7188224792,40.2203598022,-44.2882385254,44.2142944336,48.2350883484,31.9359378815,7.3213963509,29.7013835907,48.8113822937,3.6242859364,7.6163520813,10.7627191544
1.4974319617797E+018,12.2243499756,-6.9291782379,40.2165107727,50,56.9922714233,17.7469806671,52.7188224792,40.2203598022,-44.2882385254,44.2142944336,49.0663642883,31.9359378815,7.3213963509,29.7013835907,48.8113822937,2.1728596687,7.6163520813,10.7627191544
1.49743196178898E+018,11.3408737183,-6.3699111939,40.2165107727,50,56.9922714233,18.6096229553,52.7188224792,41.8532218933,-50.2647171021,44.2142944336,49.0663642883,31.9359378815,7.3213963509,29.7013835907,48.8113822937,2.1728596687,7.6163520813,10.7627191544
1.49743196179834E+018,11.3408737183,-6.3699111939,40.2165107727,50,56.9922714233,19.4722652435,52.7188224792,42.6696395874,-56.2411804199,42.7628593445,49.0663642883,30.5468769073,7.3213963509,29.7013835907,49.6373977661,2.1728596687,7.6163520813,10.7627191544
1.49743196180765E+018,12.2243499756,-6.3699111939,40.2165107727,50,56.9922714233,20.3349094391,58.0976333618,42.6696395874,-64.4588317871,42.7628593445,49.0663642883,29.7531242371,6.2581381798,29.7013835907,50.0504074097,2.8985700607,9.1458034515,10.7627191544
1.49743196181691E+018,12.2243499756,-6.3699111939,40.2165107727,50,58.8029670715,21.1975460052,58.0976333618,43.4860687256,-70.435295105,42.7628593445,49.0663642883,27.3718757629,6.2581381798,29.7013835907,50.3601608276,3.6242859364,9.9105377197,10.7627191544
1.49743196182618E+018,13.1078262329,-6.3699111939,40.2165107727,50,59.708316803,20.3349094391,55.4082374573,43.4860687256,-64.4588317871,42.7628593445,49.0663642883,28.9593734741,6.2581381798,28.4704608917,50.3601608276,2.1728596687,11.4400024414,9.9735927582
1.49743196183542E+018,23.4886932373,-7.488445282,40.2165107727,50,58.8029670715,19.4722652435,50.0294036865,43.4860687256,-47.276473999,45.6657142639,49.0663642883,36.6984367371,4.1316218376,27.7670783997,49.6373977661,1.4471439123,10.6752700806,10.3681564331
1.49743196184453E+018,27.9060897827,-6.9291782379,40.2165107727,50,57.8976173401,18.6096229553,47.3399887085,43.4860687256,-41.3000183105,45.6657142639,49.0663642883,36.6984367371,4.1316218376,27.0636940002,50.0504074097,1.4471439123,9.9105377197,10.3681564331
1.49743196185372E+018,25.2556533813,-6.3699111939,40.2165107727,50,57.8976173401,18.6096229553,50.0294036865,43.4860687256,-44.2882385254,45.6657142639,49.0663642883,35.1109390259,5.1948800087,27.7670783997,49.6373977661,2.1728596687,9.1458034515,10.3681564331
1.49743196186292E+018,19.0713043213,-6.3699111939,40.2165107727,50,58.8029670715,18.6096229553,50.0294036865,43.4860687256,-53.2529373169,44.2142944336,49.0663642883,32.7296905518,5.1948800087,28.4704608917,49.6373977661,2.1728596687,9.1458034515,10.3681564331
1.49743196187217E+018,13.1078262329,-6.3699111939,40.2165107727,50,58.8029670715,18.6096229553,52.7188224792,43.4860687256,-58.4823455811,42.7628593445,49.0663642883,31.3406276703,5.1948800087,28.4704608917,50.0504074097,0.7214280963,9.1458034515,10.3681564331
1.49743196188141E+018,11.3408737183,-6.3699111939,40.2165107727,50,58.8029670715,18.6096229553,55.4082374573,43.4860687256,-61.4705886841,42.7628593445,49.0663642883,30.5468769073,5.1948800087,28.998003006,51.1861801147,-0.0042877458,9.1458034515,10.3681564331
1.49743196189069E+018,11.3408737183,-6.3699111939,40.2165107727,50,58.8029670715,18.6096229553,55.4082374573,43.4860687256,-64.4588317871,41.3114280701,49.0663642883,30.5468769073,5.1948800087,28.998003006,51.5991859436,-1.4557139874,9.1458034515,10.3681564331
1.49743196189996E+018,11.3408737183,-6.3699111939,40.2165107727,50,58.8029670715,20.3349094391,55.4082374573,43.4860687256,-64.4588317871,42.7628593445,49.8976402283,29.7531242371,5.1948800087,28.998003006,50.7731704712,-1.4557139874,9.1458034515,10.3681564331
1.49743196190925E+018,11.3408737183,-6.3699111939,40.2165107727,50,58.8029670715,20.3349094391,55.4082374573,44.0983963013,-64.4588317871,42.7628593445,49.8976402283,30.5468769073,5.1948800087,28.998003006,50.3601608276,-1.4557139874,9.1458034515,10.7627191544
1.49743196191846E+018,9.5739135742,-6.3699111939,40.2165107727,50,58.8029670715,20.3349094391,55.4082374573,44.0983963013,-64.4588317871,42.7628593445,49.8976402283,30.5468769073,5.1948800087,28.998003006,50.3601608276,-1.4557139874,7.6163520813,10.7627191544
1.49743196192767E+018,7.8069610596,-6.3699111939,40.2165107727,50,58.8029670715,21.1975460052,55.4082374573,44.0983963013,-64.4588317871,42.7628593445,49.8976402283,30.5468769073,5.1948800087,28.998003006,50.7731704712,-1.4557139874,7.6163520813,10.7627191544
1.49743196193714E+018,5.1565170288,-6.3699111939,40.2165107727,50,56.9922714233,21.1975460052,55.4082374573,44.0983963013,-58.4823455811,42.7628593445,49.8976402283,30.5468769073,5.1948800087,28.998003006,50.7731704712,-2.9071457386,6.8516159058,10.7627191544
1.49743196194629E+018,4.2730484009,-6.3699111939,40.2165107727,50,56.9922714233,21.1975460052,55.4082374573,44.0983963013,-56.2411804199,39.8599967957,49.8976402283,30.5468769073,5.1948800087,28.998003006,51.1861801147,-2.9071457386,7.6163520813,10.7627191544
1.49743196195553E+018,4.2730484009,-6.3699111939,40.2165107727,50,56.9922714233,21.1975460052,55.4082374573,44.0983963013,-56.2411804199,39.8599967957,49.8976402283,30.5468769073,5.1948800087,28.998003006,51.1861801147,-2.9071457386,7.6163520813,10.7627191544
1.49743196196477E+018,4.2730484009,-6.3699111939,40.2165107727,50,57.8976173401,21.1975460052,55.4082374573,44.0983963013,-58.4823455811,39.8599967957,49.8976402283,30.5468769073,5.1948800087,28.998003006,51.5991859436,-2.181429863,9.1458034515,10.7627191544
1.49743196197408E+018,4.2730484009,-6.3699111939,40.2165107727,50,57.8976173401,22.922832489,55.4082374573,44.0983963013,-64.4588317871,39.8599967957,49.8976402283,28.1656265259,4.1316218376,28.998003006,52.0121955872,-1.4557139874,9.9105377197,10.7627191544
1.49743196198335E+018,4.2730484009,-6.3699111939,40.2165107727,50,58.8029670715,22.922832489,55.4082374573,45.7312545776,-67.4470748901,39.8599967957,49.8976402283,28.1656265259,4.1316218376,28.998003006,52.0121955872,-2.181429863,11.4400024414,9.9735927582
1.49743196199262E+018,11.3408737183,-6.3699111939,40.2165107727,50,58.8029670715,22.922832489,50.0294036865,46.5476875305,-53.2529373169,42.7628593445,49.8976402283,34.3171882629,4.1316218376,27.7670783997,51.1861801147,-5.6285719872,11.4400024414,9.9735927582
1.49743196200184E+018,19.0713043213,-6.3699111939,40.2165107727,50,58.8029670715,23.7854766846,47.3399887085,46.5476875305,-44.2882385254,44.2142944336,49.8976402283,37.4921875,4.1316218376,27.7670783997,50.7731704712,-6.3542876244,10.6752700806,10.3681564331
1.49743196201105E+018,20.8382644653,-6.3699111939,40.2165107727,50,58.8029670715,23.7854766846,47.3399887085,47.3641052246,-44.2882385254,44.2142944336,49.8976402283,35.9046859741,4.1316218376,27.7670783997,50.3601608276,-5.0842876434,10.6752700806,10.3681564331
