%time,field.position0,field.position1,field.position2,field.position3,field.position4,field.position5,field.position6,field.position7,field.position8,field.position9,field.position10,field.position11,field.position12,field.position13,field.position14,field.position15,field.position16,field.position17
1.49743256327509E+018,29.6730422974,-14.6190881729,2.497508049,50,36.6219787598,16.2373580933,26.4970588684,32.0560722351,23.6941108704,8.6542816162,32.648727417,31.3406276703,-1.9821004868,32.5149230957,45.9203262329,-0.7299981713,18.1314048767,11.1572828293
1.49743256328432E+018,30.3356552124,-14.6190881729,2.497508049,50,36.6219787598,16.2373580933,26.4970588684,32.0560722351,23.6941108704,8.6542816162,32.648727417,31.3406276703,-1.9821004868,32.5149230957,45.9203262329,-0.0042877458,18.1314048767,11.1572828293
1.49743256329353E+018,30.3356552124,-14.6190881729,2.497508049,50,36.6219787598,16.2373580933,26.4970588684,32.0560722351,23.6941108704,10.1057138443,32.648727417,31.3406276703,-1.9821004868,31.8115406036,46.3333358765,-0.0042877458,18.1314048767,10.7627191544
1.49743256330282E+018,29.6730422974,-14.6190881729,2.497508049,50,36.6219787598,16.2373580933,26.4970588684,32.0560722351,23.6941108704,11.5571451187,34.3112716675,31.3406276703,-1.9821004868,31.8115406036,46.3333358765,-0.7299981713,18.1314048767,11.1572828293
1.49743256331215E+018,29.6730422974,-14.6190881729,2.497508049,50,36.6219787598,15.3747205734,26.4970588684,32.0560722351,23.6941108704,11.5571451187,34.3112716675,31.3406276703,-1.9821004868,31.8115406036,46.3333358765,-0.7299981713,18.1314048767,10.7627191544
1.49743256332155E+018,29.6730422974,-14.6190881729,2.497508049,50,36.6219787598,15.3747205734,26.4970588684,33.6889305115,23.6941108704,13.0085659027,34.3112716675,32.7296905518,-1.9821004868,31.8115406036,46.3333358765,-0.7299981713,18.1314048767,10.7627191544
1.49743256333094E+018,29.6730422974,-14.6190881729,2.497508049,50,38.2063293457,15.3747205734,31.8758926392,33.6889305115,23.6941108704,14.4599981308,35.1425476074,32.7296905518,-1.9821004868,31.8115406036,46.3333358765,-0.7299981713,18.1314048767,10.7627191544
1.49743256334023E+018,31.2191314697,-13.5005531311,2.497508049,50,38.2063293457,15.3747205734,31.8758926392,34.5053596497,23.6941108704,14.4599981308,35.1425476074,33.5234375,-1.9821004868,33.2183074951,45.5073165894,-0.7299981713,17.3666725159,10.7627191544
1.49743256334948E+018,32.9860916138,-13.5005531311,2.497508049,50,38.2063293457,15.3747205734,31.8758926392,35.3217926025,23.6941108704,15.5485658646,35.9738197327,33.5234375,-1.9821004868,33.9216957092,45.0943069458,-0.7299981713,17.3666725159,10.7627191544
1.49743256335886E+018,33.8695678711,-12.941286087,2.497508049,50,38.2063293457,16.2373580933,31.8758926392,35.3217926025,23.6941108704,16.9999980927,35.9738197327,33.5234375,-0.1214027256,33.9216957092,44.6813011169,-0.7299981713,17.3666725159,10.7627191544
1.49743256336805E+018,34.7530441284,-11.8227519989,2.497508049,50,38.2063293457,16.2373580933,31.8758926392,36.1382102966,29.670583725,16.9999980927,36.8050880432,33.5234375,-0.1214027256,34.6250801086,44.6813011169,-0.7299981713,17.3666725159,10.7627191544
1.49743256337725E+018,35.6365203857,-11.8227519989,2.497508049,50,38.2063293457,16.2373580933,31.8758926392,36.9546394348,29.670583725,18.4514293671,36.8050880432,33.5234375,-0.1214027256,35.3284606934,44.2682914734,-0.7299981713,17.3666725159,10.7627191544
1.49743256338656E+018,36.5200042725,-11.2634849548,2.497508049,50,38.2063293457,16.2373580933,31.8758926392,36.9546394348,29.670583725,18.4514293671,37.6363639832,33.5234375,0.9418554306,36.0318489075,43.8552856445,-0.7299981713,16.601940155,10.7627191544
1.49743256339586E+018,36.5200042725,-11.2634849548,0.2115036845,50,38.2063293457,16.2373580933,31.8758926392,37.771068573,32.6588134766,19.9028606415,37.6363639832,33.5234375,0.9418554306,36.0318489075,43.5455284119,-0.0042877458,16.601940155,10.7627191544
1.49743256340513E+018,36.5200042725,-11.2634849548,0.2115036845,50,38.2063293457,16.2373580933,31.8758926392,38.5875015259,29.670583725,21.3542823792,38.4676361084,33.5234375,0.9418554306,36.7352333069,42.7195129395,-0.0042877458,16.601940155,10.7627191544
1.49743256341441E+018,36.5200042725,-11.2634849548,0.2115036845,50,40.0170249939,17.7469806671,31.8758926392,38.5875015259,29.670583725,22.8057136536,38.4676361084,33.5234375,0.9418554306,37.4386138916,41.893497467,-0.0042877458,16.601940155,10.7627191544
1.49743256342367E+018,39.1704330444,-11.2634849548,0.2115036845,50,40.9223747253,18.6096229553,31.8758926392,39.4039306641,29.670583725,22.8057136536,39.2989120483,35.1109390259,0.9418554306,38.1420021057,41.0674819946,1.4471439123,16.601940155,10.7627191544
1.49743256343286E+018,41.8208694458,-11.2634849548,0.2115036845,50,40.9223747253,19.4722652435,31.8758926392,40.2203598022,29.670583725,24.257144928,40.1301879883,35.9046859741,3.0683717728,38.1420021057,41.0674819946,2.1728596687,16.601940155,10.7627191544
1.49743256344198E+018,43.5878295898,-11.2634849548,-2.0745007992,50,41.8277244568,19.4722652435,31.8758926392,41.0367927551,29.670583725,24.257144928,40.9614486694,36.6984367371,3.0683717728,38.8453865051,40.6544723511,2.1728596687,16.601940155,10.7627191544
1.49743256345117E+018,44.2504348755,-11.2634849548,-2.0745007992,50,41.8277244568,19.4722652435,31.8758926392,41.8532218933,29.670583725,25.7085762024,42.6239967346,36.6984367371,3.0683717728,40.0763092041,40.2414627075,2.1728596687,16.601940155,10.7627191544
1.49743256346037E+018,46.0173873901,-11.2634849548,-2.0745007992,50,42.7330703735,19.4722652435,31.8758926392,43.4860687256,29.670583725,25.7085762024,43.4552726746,37.4921875,4.1316218376,40.7796936035,40.2414627075,2.1728596687,16.601940155,10.7627191544
1.49743256346955E+018,47.7843475342,-11.2634849548,-6.6464924812,50,42.7330703735,19.4722652435,31.8758926392,44.0983963013,29.670583725,27.1599979401,44.0787315369,37.4921875,4.1316218376,41.4830780029,39.828453064,2.1728596687,16.601940155,10.7627191544
1.4974325634788E+018,49.5513076782,-11.2634849548,-6.6464924812,50,42.7330703735,19.4722652435,31.8758926392,44.9148254395,29.670583725,27.1599979401,44.9100036621,38.2859382629,4.1316218376,42.1864624023,39.4154472351,2.1728596687,16.601940155,10.7627191544
1.49743256348812E+018,50.4347839355,-11.2634849548,-8.9324970245,50,42.7330703735,19.4722652435,31.8758926392,45.7312545776,35.6470565796,28.6114292145,45.741268158,38.2859382629,4.1316218376,42.8898468018,39.0024375916,2.1728596687,16.601940155,10.7627191544
1.49743256349741E+018,51.3182601929,-11.2634849548,-8.9324970245,50,42.7330703735,20.3349094391,31.8758926392,46.5476875305,35.6470565796,28.6114292145,46.5725402832,39.0796852112,4.1316218376,43.5932350159,38.5894317627,2.1728596687,16.601940155,10.7627191544
1.49743256350668E+018,51.3182601929,-11.2634849548,-11.2184839249,50,42.7330703735,20.3349094391,31.8758926392,47.3641052246,35.6470565796,28.6114292145,47.4038162231,39.0796852112,4.1316218376,44.2966156006,38.1764221191,3.6242859364,16.601940155,10.7627191544
1.49743256351602E+018,52.2017440796,-10.7042255402,-11.2184839249,50,42.7330703735,20.3349094391,31.8758926392,48.996963501,40.8764648438,28.6114292145,49.0663642883,39.8734359741,4.1316218376,45.7033882141,38.1764221191,3.6242859364,15.8372077942,10.7627191544
1.49743256352523E+018,53.0852203369,-10.7042255402,-13.504488945,50,43.6384048462,20.3349094391,31.8758926392,49.8133964539,40.8764648438,28.6114292145,51.5601768494,39.8734359741,5.1948800087,46.4067726135,38.1764221191,2.8985700607,15.8372077942,10.7627191544
1.49743256353424E+018,53.9686889648,-10.7042255402,-15.7904930115,50,43.6384048462,20.3349094391,31.8758926392,51.4462547302,43.8646965027,28.6114292145,53.2227249146,40.6671905518,5.1948800087,47.813533783,38.1764221191,2.8985700607,15.8372077942,10.7627191544
1.49743256354343E+018,55.7356491089,-10.7042255402,-18.0764980316,50,43.6384048462,20.3349094391,31.8758926392,52.2626838684,43.8646965027,28.6114292145,54.0539970398,40.6671905518,5.1948800087,49.2203063965,38.1764221191,2.1728596687,15.8372077942,10.7627191544
1.49743256355269E+018,57.2817459106,-10.7042255402,-18.0764980316,50,43.6384048462,20.3349094391,31.8758926392,52.2626838684,43.8646965027,28.6114292145,55.7165489197,41.4609413147,5.1948800087,49.9236946106,37.3504066467,2.1728596687,15.8372077942,10.7627191544
1.49743256356199E+018,58.165222168,-10.7042255402,-20.3624839783,50,43.6384048462,20.3349094391,31.8758926392,53.0791053772,43.8646965027,31.5142822266,56.5478210449,41.4609413147,7.3213963509,51.1546211243,37.0406494141,2.1728596687,15.8372077942,10.7627191544
1.49743256357122E+018,59.9321746826,-10.7042255402,-22.6484889984,50,43.6384048462,20.3349094391,31.8758926392,53.0791053772,43.8646965027,32.965713501,58.0025405884,42.2546844482,7.3213963509,51.8579978943,36.6276397705,2.1728596687,15.8372077942,10.7627191544
1.49743256358049E+018,60.8156509399,-10.7042255402,-24.9344940186,50,43.6384048462,20.3349094391,31.8758926392,53.0791053772,43.8646965027,34.4171447754,58.8338165283,43.0484390259,7.3213963509,52.5613822937,36.2146339417,2.1728596687,15.8372077942,10.7627191544
1.49743256358978E+018,61.6991348267,-11.2634849548,-29.5064849854,50,45.4491043091,20.3349094391,31.8758926392,53.0791053772,43.8646965027,35.8685760498,60.4963645935,43.8421897888,8.3846464157,53.2647705078,35.3886184692,3.6242859364,15.8372077942,10.7627191544
1.49743256359906E+018,62.582611084,-11.2634849548,-31.2209968567,50,45.4491043091,19.4722652435,34.5652885437,53.0791053772,46.852935791,37.3199958801,61.3276405334,44.4375,8.3846464157,53.9681549072,34.1495933533,5.075712204,15.8372077942,10.7627191544
1.49743256360824E+018,63.4660949707,-11.2634849548,-33.5069847107,50,46.3544502258,19.4722652435,34.5652885437,53.0791053772,46.852935791,38.4085769653,62.1589012146,45.2312507629,9.4479045868,54.6715431213,33.3235778809,6.3457121849,15.8372077942,10.7627191544
1.49743256361748E+018,64.349571228,-11.2634849548,-38.078994751,50,46.3544502258,19.4722652435,34.5652885437,53.0791053772,46.852935791,39.8599967957,62.9901771545,46.0249977112,9.4479045868,55.3749275208,32.9105682373,7.7971439362,15.8372077942,10.7627191544
1.49743256362686E+018,65.233039856,-12.382019043,-40.3649978638,50,46.3544502258,19.4722652435,34.5652885437,53.0791053772,52.829410553,39.8599967957,63.8214492798,47.6124992371,9.4479045868,55.3749275208,32.0845527649,9.2485704422,15.8372077942,10.3681564331
1.49743256363599E+018,66.1165161133,-12.941286087,-44.9369888306,50,46.3544502258,19.4722652435,34.5652885437,53.0791053772,52.829410553,41.3114280701,64.6527252197,48.40625,9.4479045868,56.0783119202,31.6715431213,10.7000017166,15.8372077942,10.3681564331
1.49743256364528E+018,66.1165161133,-13.5005531311,-47.2229919434,50,46.3544502258,19.4722652435,37.2547073364,53.0791053772,52.829410553,41.3114280701,64.6527252197,48.40625,9.4479045868,56.7816886902,31.2585372925,11.4257173538,15.0724754333,10.3681564331
1.49743256365449E+018,67,-14.0598211288,-49.5089797974,50,46.3544502258,19.4722652435,37.2547073364,53.0791053772,55.8176383972,42.7628593445,65.4840011597,48.40625,9.4479045868,56.7816886902,30.8455295563,12.1514282227,15.0724754333,10.3681564331
1.49743256366374E+018,67.8834762573,-14.6190881729,-51.7949867249,50,46.3544502258,19.4722652435,37.2547073364,53.8955345154,55.8176383972,42.7628593445,65.4840011597,48.40625,9.4479045868,57.4850769043,30.8455295563,13.6028594971,15.0724754333,10.3681564331
1.49743256367292E+018,67.8834762573,-14.6190881729,-54.0809898376,50,46.3544502258,19.4722652435,37.2547073364,53.8955345154,55.8176383972,42.7628593445,66.3152770996,48.40625,11.5744132996,58.1884613037,30.535774231,14.3285703659,15.0724754333,10.3681564331
1.49743256368219E+018,68.7669525146,-15.1783466339,-58.6529808044,50,46.3544502258,19.4722652435,37.2547073364,53.8955345154,55.8176383972,42.7628593445,66.3152770996,48.40625,11.5744132996,58.1884613037,30.535774231,15.7800016403,15.0724754333,10.3681564331
1.49743256369143E+018,68.7669525146,-15.7376146317,-60.9389877319,50,47.2597999573,19.4722652435,37.2547073364,53.8955345154,55.8176383972,42.7628593445,67.1465454102,48.40625,11.5744132996,58.8918457031,30.1227645874,17.2314281464,15.0724754333,10.3681564331
1.49743256370071E+018,68.7669525146,-15.7376146317,-63.2249908447,50,47.2597999573,19.4722652435,37.2547073364,53.8955345154,55.8176383972,42.7628593445,67.1465454102,49.1999969482,12.6376714706,58.8918457031,30.1227645874,17.7757167816,15.0724754333,10.3681564331
1.49743256371E+018,68.7669525146,-15.7376146317,-67.2254867554,50,47.2597999573,19.4722652435,37.2547073364,53.8955345154,55.8176383972,42.7628593445,67.9778213501,49.1999969482,12.6376714706,59.5952339172,30.1227645874,19.2271442413,15.0724754333,10.3681564331
1.49743256371933E+018,68.7669525146,-15.7376146317,-69.5114974976,50,47.2597999573,18.6096229553,37.2547073364,55.5283927917,55.8176383972,45.6657142639,67.9778213501,49.1999969482,12.6376714706,60.2986183167,30.1227645874,20.6785755157,15.0724754333,10.3681564331
1.49743256372863E+018,68.7669525146,-16.8561477661,-71.7974777222,50,47.2597999573,18.6096229553,37.2547073364,56.3448257446,55.8176383972,45.6657142639,68.8090820312,49.1999969482,12.6376714706,60.2986183167,30.1227645874,21.4042854309,15.0724754333,10.3681564331
1.4974325637378E+018,68.7669525146,-16.8561477661,-74.0834884644,50,47.2597999573,18.6096229553,37.2547073364,56.3448257446,58.8058815002,45.6657142639,68.8090820312,49.1999969482,12.6376714706,61.0020065308,30.1227645874,22.8557167053,15.0724754333,10.3681564331
1.49743256374707E+018,69.6504364014,-17.2756004333,-74.0834884644,50,47.2597999573,18.6096229553,37.2547073364,56.9571495056,58.8058815002,45.6657142639,68.8090820312,49.1999969482,12.6376714706,61.0020065308,30.1227645874,23.5814342499,15.0724754333,10.3681564331
1.49743256375628E+018,69.6504364014,-17.8348693848,-76.3694915771,50,47.2597999573,18.6096229553,37.2547073364,57.7735671997,58.8058815002,45.6657142639,68.8090820312,49.1999969482,12.6376714706,61.5295372009,30.1227645874,24.307144165,15.0724754333,10.3681564331
1.49743256376562E+018,69.6504364014,-18.3941268921,-76.3694915771,50,47.2597999573,18.6096229553,37.2547073364,57.7735671997,58.8058815002,45.6657142639,68.8090820312,49.1999969482,12.6376714706,61.5295372009,31.2585372925,24.307144165,15.0724754333,10.7627191544
1.49743256377486E+018,67.8834762573,-18.9533958435,-78.6554794312,50,47.2597999573,18.6096229553,37.2547073364,58.5900001526,58.8058815002,45.6657142639,68.8090820312,49.1999969482,12.6376714706,61.5295372009,31.6715431213,24.307144165,15.0724754333,10.7627191544
1.4974325637841E+018,66.1165161133,-19.5126609802,-78.6554794312,50,47.2597999573,20.3349094391,37.2547073364,59.4064292908,58.8058815002,42.7628593445,68.8090820312,49.1999969482,12.6376714706,61.5295372009,32.4975624084,24.307144165,15.0724754333,10.7627191544
1.49743256379333E+018,65.233039856,-19.5126609802,-78.6554794312,50,47.2597999573,21.1975460052,37.2547073364,60.222858429,58.8058815002,42.7628593445,70.2638168335,49.1999969482,10.5111627579,61.5295372009,33.7365875244,24.307144165,15.0724754333,10.7627191544
1.49743256380249E+018,64.349571228,-20.0719299316,-78.6554794312,50,47.2597999573,22.0601902008,37.2547073364,61.0392875671,58.8058815002,41.3114280701,70.2638168335,49.1999969482,9.4479045868,61.5295372009,34.9756088257,24.307144165,15.0724754333,10.7627191544
1.49743256381171E+018,63.4660949707,-20.0719299316,-78.6554794312,50,47.2597999573,22.922832489,37.2547073364,61.85572052,52.829410553,41.3114280701,70.2638168335,47.6124992371,8.3846464157,61.5295372009,35.8016281128,22.8557167053,15.0724754333,10.7627191544
1.49743256382086E+018,61.6991348267,-20.6311950684,-78.6554794312,50,47.2597999573,24.6481132507,37.2547073364,62.6721496582,49.84116745,39.8599967957,70.2638168335,46.8187484741,7.3213963509,61.5295372009,37.0406494141,21.4042854309,15.0724754333,10.7627191544
1.49743256383001E+018,60.8156509399,-21.1904640198,-78.6554794312,50,47.2597999573,25.5107555389,37.2547073364,62.6721496582,46.852935791,39.8599967957,70.2638168335,46.0249977112,6.2581381798,61.5295372009,38.1764221191,20.6785755157,15.0724754333,10.7627191544
1.49743256383919E+018,59.9321746826,-21.7497310638,-78.6554794312,50,47.2597999573,26.3733997345,37.2547073364,63.4885673523,43.8646965027,38.4085769653,70.2638168335,44.4375,5.1948800087,61.5295372009,39.828453064,19.2271442413,15.0724754333,10.3681564331
1.49743256384842E+018,59.0486907959,-21.7497310638,-78.6554794312,50,47.2597999573,27.2360363007,37.2547073364,64.3050003052,40.8764648438,38.4085769653,70.2638168335,43.8421897888,4.1316218376,61.5295372009,41.893497467,17.7757167816,15.0724754333,10.3681564331
1.49743256385767E+018,58.165222168,-22.3089981079,-78.6554794312,50,47.2597999573,28.9613227844,37.2547073364,65.1214294434,37.8882369995,38.4085769653,70.2638168335,43.0484390259,3.0683717728,60.2986183167,43.8552856445,16.5057182312,15.0724754333,10.3681564331
1.49743256386685E+018,58.165222168,-22.3089981079,-78.6554794312,50,48.165145874,29.8239650726,37.2547073364,65.9378585815,35.6470565796,38.4085769653,71.9263687134,42.2546844482,2.0051136017,59.5952339172,45.5073165894,15.7800016403,15.0724754333,10.3681564331
1.49743256387597E+018,57.2817459106,-22.8682575226,-78.6554794312,50,48.165145874,31.3335876465,37.2547073364,66.7542877197,32.6588134766,38.4085769653,71.9263687134,41.4609413147,0.9418554306,58.8918457031,47.5723571777,14.3285703659,15.0724754333,10.3681564331
1.49743256388522E+018,57.2817459106,-22.8682575226,-78.6554794312,50,48.165145874,32.1962242126,42.633518219,67.5707168579,29.670583725,38.4085769653,72.7576446533,40.6671905518,-0.1214027256,58.8918457031,48.3983726501,14.3285703659,15.0724754333,10.3681564331
1.49743256389444E+018,56.6191329956,-23.4275245667,-78.6554794312,50,48.165145874,33.9215126038,42.633518219,68.3871459961,26.682352066,38.4085769653,72.7576446533,39.8734359741,-0.1214027256,59.5952339172,49.6373977661,13.6028594971,15.0724754333,10.3681564331
1.49743256390367E+018,56.6191329956,-23.4275245667,-78.6554794312,50,48.165145874,34.7841529846,42.633518219,69.2035675049,23.6941108704,38.4085769653,72.7576446533,38.2859382629,-0.9188423753,59.5952339172,50.3601608276,13.6028594971,15.0724754333,10.3681564331
1.49743256391289E+018,56.6191329956,-23.4275245667,-78.6554794312,50,48.165145874,36.5094337463,42.633518219,69.8158950806,20.7058811188,38.4085769653,72.7576446533,37.4921875,-0.9188423753,60.2986183167,50.7731704712,12.8771438599,15.0724754333,10.3681564331
1.49743256392222E+018,56.6191329956,-23.4275245667,-78.6554794312,50,48.165145874,37.3720779419,42.633518219,70.6323242188,17.7176399231,37.3199958801,72.7576446533,36.6984367371,-0.9188423753,60.2986183167,51.5991859436,12.1514282227,15.8372077942,10.3681564331
1.49743256393149E+018,56.6191329956,-23.4275245667,-78.6554794312,50,48.165145874,38.2347221375,42.633518219,71.4487533569,8.7529258728,37.3199958801,72.7576446533,35.9046859741,-0.9188423753,60.2986183167,52.0121955872,12.1514282227,15.8372077942,10.3681564331
1.4974325639407E+018,56.6191329956,-23.4275245667,-78.6554794312,50,48.165145874,39.0973625183,47.3399887085,71.4487533569,8.7529258728,37.3199958801,74.4201812744,35.1109390259,-0.9188423753,60.2986183167,52.8382110596,11.4257173538,15.8372077942,10.3681564331
1.49743256394994E+018,54.8521728516,-23.4275245667,-78.6554794312,50,49.9758453369,39.9599952698,47.3399887085,72.2651824951,5.764705658,37.3199958801,74.4201812744,35.1109390259,-3.04535079,60.2986183167,53.2512207031,10.7000017166,15.8372077942,10.3681564331
1.49743256395915E+018,54.8521728516,-23.4275245667,-78.6554794312,50,49.9758453369,40.8226394653,47.3399887085,73.0816116333,-0.2117767334,37.3199958801,74.4201812744,34.3171882629,-3.04535079,60.2986183167,54.0772361755,9.9742860794,15.8372077942,10.3681564331
1.4974325639683E+018,54.8521728516,-23.4275245667,-78.6554794312,50,49.9758453369,41.6852798462,47.3399887085,73.0816116333,-3.2000160217,37.3199958801,75.251449585,33.5234375,-3.04535079,60.2986183167,55.3162612915,9.9742860794,15.8372077942,10.3681564331
1.49743256397755E+018,54.8521728516,-23.4275245667,-78.6554794312,50,49.9758453369,42.5479240417,47.3399887085,73.8980331421,-6.1882362366,37.3199958801,76.0827255249,32.7296905518,-4.1086087227,60.2986183167,56.1422767639,9.2485704422,15.8372077942,10.3681564331
1.49743256398683E+018,54.8521728516,-23.4275245667,-78.6554794312,50,49.9758453369,43.1949081421,47.3399887085,74.7144622803,-9.1764755249,37.3199958801,76.0827255249,32.7296905518,-4.1086087227,61.0020065308,56.8650398254,9.9742860794,15.8372077942,10.3681564331
1.49743256399614E+018,54.8521728516,-23.4275245667,-78.6554794312,50,49.9758453369,43.1949081421,47.3399887085,74.7144622803,-9.1764755249,37.3199958801,76.0827255249,32.7296905518,-4.1086087227,61.0020065308,57.278049469,9.9742860794,15.8372077942,10.3681564331
1.4974325640054E+018,54.8521728516,-23.4275245667,-78.6554794312,50,49.9758453369,43.1949081421,47.3399887085,75.5308914185,-11.4176483154,38.4085769653,76.0827255249,32.7296905518,-4.1086087227,61.0020065308,57.278049469,9.2485704422,15.8372077942,10.3681564331
1.49743256401478E+018,54.8521728516,-23.4275245667,-78.6554794312,50,49.9758453369,43.1949081421,50.0294036865,75.5308914185,-14.4058914185,38.4085769653,76.0827255249,32.7296905518,-4.1086087227,61.0020065308,57.6910552979,9.2485704422,15.8372077942,11.1572828293
1.4974325640241E+018,54.8521728516,-23.4275245667,-78.6554794312,50,51.7865257263,43.1949081421,50.0294036865,75.5308914185,-14.4058914185,38.4085769653,76.0827255249,32.7296905518,-4.1086087227,61.0020065308,57.6910552979,9.2485704422,15.8372077942,11.1572828293
1.49743256403346E+018,54.8521728516,-23.4275245667,-76.3694915771,50,51.7865257263,43.1949081421,50.0294036865,75.5308914185,-14.4058914185,38.4085769653,77.7452774048,32.7296905518,-4.1086087227,61.0020065308,57.6910552979,9.2485704422,15.8372077942,11.1572828293
1.49743256404275E+018,54.8521728516,-23.4275245667,-76.3694915771,50,51.7865257263,43.1949081421,50.0294036865,75.5308914185,-14.4058914185,38.4085769653,77.7452774048,31.9359378815,-4.1086087227,61.0020065308,57.6910552979,9.2485704422,15.8372077942,11.1572828293
1.49743256405209E+018,54.8521728516,-23.4275245667,-76.3694915771,50,51.7865257263,44.0575523376,50.0294036865,75.5308914185,-14.4058914185,38.4085769653,77.7452774048,31.9359378815,-4.1086087227,61.5295372009,57.6910552979,9.2485704422,15.8372077942,11.1572828293
1.49743256406147E+018,56.6191329956,-23.4275245667,-76.3694915771,50,51.7865257263,44.0575523376,50.0294036865,77.1637496948,-9.1764755249,38.4085769653,77.7452774048,31.9359378815,-4.1086087227,61.5295372009,57.6910552979,9.2485704422,15.8372077942,11.1572828293
1.49743256407075E+018,56.6191329956,-23.4275245667,-76.3694915771,50,51.7865257263,44.0575523376,50.0294036865,77.1637496948,-9.1764755249,38.4085769653,77.7452774048,31.9359378815,-4.1086087227,61.5295372009,57.6910552979,9.2485704422,15.8372077942,11.1572828293
1.49743256408016E+018,57.2817459106,-22.3089981079,-80.9414825439,50,51.7865257263,44.0575523376,50.0294036865,77.1637496948,-9.1764755249,39.8599967957,77.7452774048,31.9359378815,-4.1086087227,61.5295372009,57.6910552979,9.2485704422,15.8372077942,11.1572828293
1.49743256408939E+018,58.165222168,-22.3089981079,-80.9414825439,50,51.7865257263,44.0575523376,50.0294036865,77.1637496948,-6.1882362366,39.8599967957,77.7452774048,31.9359378815,-4.1086087227,61.5295372009,58.517074585,7.7971439362,15.8372077942,11.1572828293
1.49743256409866E+018,59.0486907959,-21.7497310638,-80.9414825439,50,51.7865257263,42.5479240417,50.0294036865,77.1637496948,-6.1882362366,39.8599967957,77.7452774048,31.9359378815,-4.1086087227,61.5295372009,58.1040649414,7.7971439362,15.0724754333,11.1572828293
1.49743256410788E+018,59.0486907959,-21.7497310638,-83.2274856567,50,51.7865257263,42.5479240417,50.0294036865,77.1637496948,-3.2000160217,39.8599967957,77.7452774048,31.3406276703,-4.1086087227,61.5295372009,58.1040649414,7.7971439362,15.0724754333,11.1572828293
1.4974325641171E+018,59.9321746826,-21.1904640198,-83.2274856567,50,51.7865257263,41.6852798462,50.0294036865,77.1637496948,-3.2000160217,39.8599967957,77.7452774048,31.3406276703,-4.1086087227,61.5295372009,58.1040649414,7.7971439362,15.0724754333,11.1572828293
1.4974325641264E+018,59.9321746826,-21.1904640198,-83.2274856567,50,51.7865257263,40.8226394653,50.0294036865,77.1637496948,-0.2117767334,39.8599967957,78.5765533447,31.3406276703,-4.1086087227,61.5295372009,58.1040649414,7.7971439362,15.0724754333,11.1572828293
1.49743256413568E+018,60.8156509399,-21.1904640198,-83.2274856567,50,51.7865257263,39.9599952698,50.0294036865,77.1637496948,2.7764663696,39.8599967957,78.5765533447,31.3406276703,-4.1086087227,61.0020065308,58.1040649414,7.7971439362,15.0724754333,11.1572828293
1.49743256414503E+018,60.8156509399,-21.1904640198,-83.2274856567,50,51.7865257263,39.9599952698,50.0294036865,77.1637496948,5.764705658,39.8599967957,78.5765533447,31.3406276703,-4.1086087227,61.0020065308,58.9300804138,7.7971439362,15.0724754333,11.1572828293
1.49743256415442E+018,60.8156509399,-21.1904640198,-83.2274856567,50,49.9758453369,39.0973625183,50.0294036865,77.1637496948,8.7529258728,39.8599967957,78.5765533447,31.9359378815,-4.1086087227,61.0020065308,58.9300804138,6.3457121849,15.0724754333,11.1572828293
1.49743256416385E+018,60.8156509399,-21.1904640198,-83.2274856567,50,49.9758453369,38.2347221375,50.0294036865,77.1637496948,8.7529258728,37.3199958801,78.5765533447,31.9359378815,-6.2351174355,61.0020065308,58.9300804138,6.3457121849,15.0724754333,11.1572828293
1.49743256417316E+018,60.8156509399,-21.1904640198,-85.5134887695,50,49.9758453369,37.3720779419,50.0294036865,76.3473205566,11.7411689758,35.8685760498,78.5765533447,31.9359378815,-6.2351174355,59.5952339172,58.517074585,6.3457121849,15.0724754333,11.1572828293
1.49743256418244E+018,59.0486907959,-21.1904640198,-85.5134887695,50,49.9758453369,36.5094337463,45.3229370117,76.3473205566,14.7294082642,35.8685760498,77.7452774048,31.9359378815,-6.2351174355,59.5952339172,58.517074585,5.8014278412,15.0724754333,11.1572828293
1.49743256419173E+018,59.0486907959,-21.1904640198,-85.5134887695,50,49.9758453369,35.6467895508,45.3229370117,76.3473205566,17.7176399231,34.4171447754,77.7452774048,33.5234375,-6.2351174355,59.5952339172,58.1040649414,5.8014278412,15.0724754333,11.9464082718
1.49743256420093E+018,58.165222168,-21.1904640198,-85.5134887695,50,49.9758453369,34.7841529846,45.3229370117,76.3473205566,20.7058811188,32.965713501,77.7452774048,33.5234375,-6.2351174355,58.8918457031,57.6910552979,5.8014278412,15.0724754333,11.9464082718
1.4974325642102E+018,58.165222168,-21.1904640198,-85.5134887695,50,49.9758453369,33.9215126038,42.633518219,76.3473205566,23.6941108704,32.965713501,77.7452774048,34.3171882629,-6.2351174355,58.8918457031,57.6910552979,5.8014278412,15.0724754333,11.9464082718
1.49743256421954E+018,58.165222168,-21.1904640198,-85.5134887695,50,48.165145874,33.0588684082,42.633518219,76.3473205566,23.6941108704,31.5142822266,77.7452774048,34.3171882629,-6.2351174355,58.1884613037,57.278049469,5.8014278412,15.0724754333,11.9464082718
1.49743256422886E+018,58.165222168,-22.3089981079,-85.5134887695,50,48.165145874,32.1962242126,42.633518219,75.5308914185,26.682352066,31.5142822266,76.0827255249,35.1109390259,-6.2351174355,58.1884613037,56.8650398254,5.8014278412,15.0724754333,11.9464082718
1.49743256423816E+018,58.165222168,-22.3089981079,-85.5134887695,50,48.165145874,31.3335876465,42.633518219,75.5308914185,29.670583725,31.5142822266,76.0827255249,35.9046859741,-7.2983751297,57.4850769043,56.5552825928,5.8014278412,15.0724754333,11.9464082718
1.49743256424748E+018,58.165222168,-22.8682575226,-85.5134887695,50,48.165145874,30.4709453583,42.633518219,75.5308914185,29.670583725,31.5142822266,76.0827255249,36.6984367371,-7.2983751297,56.7816886902,56.1422767639,4.350001812,15.0724754333,11.9464082718
1.49743256425685E+018,58.165222168,-22.8682575226,-87.7994766235,50,48.165145874,29.8239650726,42.633518219,75.5308914185,32.6588134766,31.5142822266,76.0827255249,36.6984367371,-7.2983751297,55.3749275208,56.1422767639,3.6242859364,15.0724754333,11.9464082718
1.49743256426619E+018,57.2817459106,-22.3089981079,-87.7994766235,50,48.165145874,29.8239650726,42.633518219,75.5308914185,32.6588134766,28.6114292145,76.0827255249,36.6984367371,-7.2983751297,54.6715431213,55.3162612915,2.1728596687,15.8372077942,11.9464082718
1.49743256427554E+018,57.2817459106,-22.3089981079,-87.7994766235,50,48.165145874,28.9613227844,39.9441223145,73.8980331421,32.6588134766,28.6114292145,74.4201812744,36.6984367371,-7.2983751297,51.8579978943,55.3162612915,0.7214280963,15.8372077942,12.340970993
1.49743256428486E+018,57.2817459106,-22.3089981079,-87.7994766235,50,48.165145874,28.9613227844,39.9441223145,73.0816116333,32.6588134766,28.6114292145,73.5889053345,36.6984367371,-7.2983751297,49.2203063965,55.3162612915,-0.7299981713,15.8372077942,12.340970993
1.49743256429417E+018,57.2817459106,-22.3089981079,-87.7994766235,50,47.2597999573,28.0986785889,39.9441223145,70.6323242188,32.6588134766,27.1599979401,71.9263687134,36.6984367371,-7.2983751297,47.1101608276,55.3162612915,-2.181429863,15.8372077942,12.340970993
1.49743256430341E+018,59.0486907959,-22.3089981079,-83.2274856567,50,47.2597999573,27.2360363007,39.9441223145,68.3871459961,32.6588134766,28.6114292145,70.2638168335,36.6984367371,-5.1718668938,45.7033882141,55.3162612915,-2.9071457386,15.8372077942,13.1300983429
1.4974325643127E+018,59.0486907959,-22.3089981079,-76.3694915771,50,47.2597999573,26.3733997345,39.9441223145,65.9378585815,32.6588134766,30.0628604889,67.9778213501,36.6984367371,-5.1718668938,45,55.3162612915,-3.6328561306,15.8372077942,13.1300983429
1.49743256432192E+018,59.0486907959,-22.3089981079,-71.7974777222,50,47.2597999573,25.5107555389,39.9441223145,63.4885673523,32.6588134766,31.5142822266,66.3152770996,35.1109390259,-5.1718668938,45,54.4902420044,-3.6328561306,15.8372077942,13.5246610641
1.49743256433109E+018,59.0486907959,-22.3089981079,-65.5109939575,50,47.2597999573,24.6481132507,39.9441223145,62.6721496582,32.6588134766,32.965713501,65.4840011597,35.1109390259,-4.1086087227,45,54.0772361755,-2.9071457386,15.8372077942,13.5246610641
1.49743256434029E+018,59.0486907959,-22.3089981079,-60.9389877319,50,47.2597999573,24.6481132507,39.9441223145,62.6721496582,26.682352066,32.965713501,65.4840011597,35.1109390259,-3.04535079,45,53.2512207031,-1.4557139874,15.8372077942,13.5246610641
1.49743256434957E+018,59.0486907959,-22.3089981079,-54.0809898376,50,49.0704956055,24.6481132507,39.9441223145,62.6721496582,23.6941108704,35.8685760498,65.4840011597,34.3171882629,-1.9821004868,45,52.8382110596,-0.7299981713,14.498922348,13.5246610641
1.4974325643588E+018,59.0486907959,-22.3089981079,-49.5089797974,50,49.0704956055,24.6481132507,45.3229370117,62.6721496582,20.7058811188,37.3199958801,65.4840011597,34.3171882629,-0.9188423753,45,51.5991859436,0.7214280963,13.7342014313,13.5246610641
1.49743256436794E+018,59.0486907959,-22.3089981079,-44.9369888306,50,49.9758453369,24.6481132507,47.3399887085,62.6721496582,17.7176399231,38.4085769653,65.4840011597,34.3171882629,-0.1214027256,45,50.3601608276,2.1728596687,13.7342014313,13.5246610641
1.49743256437724E+018,59.0486907959,-22.3089981079,-40.3649978638,50,50.8811798096,26.3733997345,47.3399887085,62.6721496582,17.7176399231,39.8599967957,65.4840011597,34.3171882629,0.9418554306,46.4067726135,49.6373977661,3.6242859364,12.9694671631,13.5246610641
1.49743256438651E+018,60.8156509399,-22.3089981079,-38.078994751,50,50.8811798096,26.3733997345,47.3399887085,62.6721496582,14.7294082642,41.3114280701,65.4840011597,34.3171882629,0.9418554306,46.4067726135,48.3983726501,5.075712204,12.2047348022,13.5246610641
1.49743256439584E+018,60.8156509399,-21.1904640198,-35.7929878235,50,51.7865257263,26.3733997345,47.3399887085,63.4885673523,14.7294082642,41.3114280701,65.4840011597,34.3171882629,2.0051136017,46.4067726135,47.9853668213,6.3457121849,12.2047348022,13.5246610641
1.49743256440506E+018,60.8156509399,-21.1904640198,-33.5069847107,50,51.7865257263,26.3733997345,47.3399887085,63.4885673523,14.7294082642,42.7628593445,65.4840011597,35.9046859741,2.0051136017,46.4067726135,47.1593475342,7.0714278221,12.2047348022,13.5246610641
1.49743256441431E+018,60.8156509399,-21.1904640198,-31.2209968567,50,51.7865257263,26.3733997345,47.3399887085,63.4885673523,14.7294082642,42.7628593445,65.4840011597,35.9046859741,3.0683717728,46.4067726135,47.1593475342,7.7971439362,12.2047348022,13.5246610641
1.49743256442356E+018,60.8156509399,-21.1904640198,-31.2209968567,50,51.7865257263,26.3733997345,47.3399887085,63.4885673523,14.7294082642,44.2142944336,65.4840011597,35.9046859741,3.0683717728,46.4067726135,46.7463417053,8.5228595734,12.2047348022,13.5246610641
1.49743256443284E+018,60.8156509399,-21.1904640198,-29.5064849854,50,51.7865257263,26.3733997345,50.0294036865,63.4885673523,8.7529258728,44.2142944336,65.4840011597,35.9046859741,3.0683717728,46.4067726135,46.3333358765,9.9742860794,12.2047348022,13.9192237854
1.49743256444196E+018,60.8156509399,-21.1904640198,-27.2204971313,50,51.7865257263,26.3733997345,50.0294036865,63.4885673523,8.7529258728,44.2142944336,65.4840011597,35.9046859741,3.0683717728,46.4067726135,45.9203262329,10.7000017166,12.2047348022,13.9192237854
1.49743256445124E+018,60.8156509399,-21.1904640198,-24.9344940186,50,51.7865257263,26.3733997345,50.0294036865,63.4885673523,8.7529258728,44.2142944336,65.4840011597,35.9046859741,3.0683717728,45,45.9203262329,11.4257173538,12.2047348022,13.9192237854
1.49743256446057E+018,60.8156509399,-21.1904640198,-22.6484889984,50,51.7865257263,26.3733997345,50.0294036865,63.4885673523,11.7411689758,44.2142944336,65.4840011597,35.9046859741,3.0683717728,45,45.5073165894,11.4257173538,13.7342014313,13.9192237854
1.49743256446978E+018,60.8156509399,-21.1904640198,-20.3624839783,50,51.7865257263,26.3733997345,42.633518219,63.4885673523,26.682352066,44.2142944336,65.4840011597,40.6671905518,3.0683717728,44.2966156006,45.0943069458,8.5228595734,13.7342014313,13.9192237854
1.49743256447904E+018,64.349571228,-21.1904640198,-15.7904930115,50,51.7865257263,26.3733997345,37.2547073364,63.4885673523,43.8646965027,44.2142944336,63.8214492798,43.8421897888,3.0683717728,42.8898468018,44.2682914734,6.3457121849,13.7342014313,13.1300983429
1.49743256448829E+018,65.233039856,-20.0719299316,-11.2184839249,50,51.7865257263,26.3733997345,34.5652885437,65.1214294434,46.852935791,44.2142944336,64.6527252197,45.2312507629,3.0683717728,42.1864624023,43.8552856445,6.3457121849,12.9694671631,13.1300983429
1.49743256449756E+018,64.349571228,-20.0719299316,-8.9324970245,50,51.7865257263,26.3733997345,37.2547073364,65.1214294434,46.852935791,44.2142944336,64.6527252197,45.2312507629,5.1948800087,42.1864624023,42.7195129395,7.0714278221,12.9694671631,13.1300983429
1.49743256450675E+018,63.4660949707,-20.0719299316,-4.3604879379,50,51.7865257263,26.3733997345,39.9441223145,65.1214294434,40.8764648438,44.2142944336,64.6527252197,43.8421897888,5.1948800087,42.8898468018,43.132522583,7.0714278221,12.9694671631,13.5246610641
1.49743256451601E+018,63.4660949707,-20.0719299316,-4.3604879379,50,51.7865257263,28.0986785889,42.633518219,65.9378585815,32.6588134766,47.1171455383,64.6527252197,43.0484390259,5.1948800087,42.8898468018,43.5455284119,7.7971439362,12.9694671631,13.9192237854
1.49743256452528E+018,62.582611084,-20.0719299316,-2.0745007992,50,51.7865257263,28.0986785889,45.3229370117,65.9378585815,26.682352066,47.1171455383,64.6527252197,41.4609413147,5.1948800087,42.8898468018,43.5455284119,7.7971439362,12.9694671631,13.9192237854
1.49743256453442E+018,61.6991348267,-20.0719299316,0.2115036845,50,51.7865257263,28.0986785889,45.3229370117,65.9378585815,23.6941108704,47.1171455383,64.6527252197,41.4609413147,5.1948800087,42.8898468018,43.5455284119,7.7971439362,12.9694671631,14.3137874603
1.49743256454364E+018,59.9321746826,-20.0719299316,2.497508049,50,53.370891571,28.0986785889,45.3229370117,65.9378585815,17.7176399231,47.1171455383,64.6527252197,41.4609413147,5.1948800087,42.8898468018,43.5455284119,7.7971439362,12.9694671631,13.9192237854
1.49743256455293E+018,59.9321746826,-20.0719299316,4.7835125923,50,53.370891571,28.0986785889,45.3229370117,65.9378585815,17.7176399231,47.1171455383,64.6527252197,41.4609413147,5.1948800087,42.8898468018,43.5455284119,7.7971439362,12.9694671631,13.9192237854
1.49743256456231E+018,59.0486907959,-20.0719299316,4.7835125923,50,53.370891571,28.0986785889,45.3229370117,65.9378585815,20.7058811188,47.1171455383,64.6527252197,41.4609413147,5.1948800087,42.8898468018,43.5455284119,7.7971439362,12.9694671631,14.3137874603
1.4974325645717E+018,58.165222168,-20.0719299316,6.4980072975,50,53.370891571,28.0986785889,45.3229370117,65.9378585815,17.7176399231,47.1171455383,64.6527252197,41.4609413147,5.1948800087,42.8898468018,43.5455284119,7.7971439362,11.4400024414,14.3137874603
1.49743256458115E+018,57.2817459106,-20.0719299316,6.4980072975,50,53.370891571,28.0986785889,45.3229370117,65.9378585815,20.7058811188,47.1171455383,64.6527252197,41.4609413147,5.1948800087,42.8898468018,43.5455284119,7.7971439362,10.6752700806,14.3137874603
1.4974325645906E+018,57.2817459106,-20.0719299316,8.7840118408,50,53.370891571,28.9613227844,47.3399887085,65.1214294434,17.7176399231,47.1171455383,63.8214492798,40.6671905518,5.1948800087,42.8898468018,43.5455284119,9.2485704422,10.6752700806,14.3137874603
1.49743256459992E+018,55.7356491089,-20.0719299316,8.7840118408,50,53.370891571,28.9613227844,47.3399887085,65.1214294434,17.7176399231,47.1171455383,63.8214492798,40.6671905518,6.2581381798,42.8898468018,43.132522583,9.2485704422,10.6752700806,14.3137874603
1.49743256460918E+018,54.8521728516,-20.0719299316,8.7840118408,50,53.370891571,28.9613227844,47.3399887085,65.1214294434,17.7176399231,47.1171455383,63.8214492798,40.6671905518,6.2581381798,43.5932350159,43.132522583,8.5228595734,10.6752700806,14.3137874603
1.49743256461848E+018,53.0852203369,-20.0719299316,8.7840118408,50,53.370891571,30.4709453583,47.3399887085,65.1214294434,17.7176399231,47.1171455383,63.8214492798,40.6671905518,6.2581381798,43.5932350159,43.132522583,7.7971439362,10.6752700806,14.3137874603
1.49743256462783E+018,51.3182601929,-18.9533958435,13.3560037613,50,53.370891571,31.3335876465,47.3399887085,65.1214294434,8.7529258728,47.1171455383,63.8214492798,40.6671905518,6.2581381798,43.5932350159,43.8552856445,7.0714278221,12.2047348022,13.9192237854
1.49743256463698E+018,49.5513076782,-17.8348693848,15.6420078278,50,53.370891571,31.3335876465,47.3399887085,65.1214294434,5.764705658,47.1171455383,63.8214492798,39.0796852112,6.2581381798,43.5932350159,44.2682914734,5.8014278412,12.9694671631,13.9192237854
1.49743256464633E+018,49.5513076782,-17.8348693848,15.6420078278,50,53.370891571,31.3335876465,47.3399887085,65.1214294434,14.7294082642,47.1171455383,63.8214492798,41.4609413147,4.1316218376,43.5932350159,44.2682914734,1.4471439123,14.498922348,13.9192237854
1.49743256465554E+018,51.3182601929,-17.2756004333,13.3560037613,50,53.370891571,31.3335876465,39.9441223145,65.1214294434,26.682352066,44.2142944336,63.8214492798,44.4375,3.0683717728,42.1864624023,44.6813011169,-0.7299981713,14.498922348,13.9192237854
1.49743256466478E+018,48.6678314209,-17.2756004333,15.6420078278,50,53.370891571,33.0588684082,39.9441223145,65.1214294434,20.7058811188,42.7628593445,63.8214492798,44.4375,4.1316218376,42.1864624023,45.0943069458,-0.7299981713,13.7342014313,13.1300983429
1.49743256467397E+018,45.1339187622,-16.8561477661,17.9280128479,50,53.370891571,33.0588684082,42.633518219,65.1214294434,14.7294082642,44.2142944336,63.8214492798,42.2546844482,5.1948800087,42.1864624023,44.6813011169,-0.0042877458,13.7342014313,13.5246610641
1.49743256468321E+018,43.5878295898,-16.2968826294,20.2139987946,50,53.370891571,33.0588684082,45.3229370117,65.1214294434,5.764705658,45.6657142639,63.8214492798,39.8734359741,5.1948800087,42.1864624023,45.0943069458,-0.0042877458,12.9694671631,13.9192237854
1.49743256469254E+018,43.5878295898,-16.2968826294,20.2139987946,50,55.1815872192,33.0588684082,47.3399887085,65.1214294434,-0.2117767334,45.6657142639,63.8214492798,39.8734359741,5.1948800087,42.1864624023,45.5073165894,-0.0042877458,12.9694671631,14.3137874603
1.49743256470178E+018,43.5878295898,-16.2968826294,20.2139987946,50,55.1815872192,33.0588684082,47.3399887085,65.9378585815,-0.2117767334,45.6657142639,63.8214492798,39.8734359741,5.1948800087,42.1864624023,45.5073165894,-0.0042877458,12.9694671631,13.9192237854
1.49743256471109E+018,43.5878295898,-16.2968826294,20.2139987946,50,55.1815872192,33.0588684082,47.3399887085,65.9378585815,-3.2000160217,45.6657142639,64.6527252197,39.8734359741,5.1948800087,42.1864624023,45.0943069458,-0.0042877458,12.9694671631,13.9192237854
1.49743256472043E+018,45.1339187622,-16.2968826294,20.2139987946,50,55.1815872192,33.0588684082,47.3399887085,65.9378585815,-3.2000160217,45.6657142639,64.6527252197,39.8734359741,5.1948800087,42.1864624023,45.0943069458,1.4471439123,12.9694671631,13.9192237854
1.49743256472973E+018,46.0173873901,-16.2968826294,20.2139987946,50,55.1815872192,33.0588684082,47.3399887085,65.9378585815,-3.2000160217,45.6657142639,64.6527252197,39.8734359741,5.1948800087,42.1864624023,44.6813011169,1.4471439123,11.4400024414,13.9192237854
1.49743256473901E+018,46.9008712769,-16.2968826294,20.2139987946,50,55.1815872192,33.0588684082,47.3399887085,65.9378585815,-3.2000160217,45.6657142639,64.6527252197,39.8734359741,5.1948800087,42.8898468018,44.6813011169,2.1728596687,10.6752700806,13.9192237854
1.49743256474833E+018,46.9008712769,-16.2968826294,20.2139987946,50,55.1815872192,33.0588684082,47.3399887085,65.9378585815,-3.2000160217,47.1171455383,64.6527252197,39.8734359741,5.1948800087,42.8898468018,44.6813011169,2.1728596687,10.6752700806,13.9192237854
1.49743256475769E+018,46.9008712769,-15.7376146317,20.2139987946,50,55.1815872192,33.9215126038,47.3399887085,65.9378585815,-3.2000160217,47.1171455383,64.6527252197,39.8734359741,5.1948800087,42.8898468018,44.6813011169,2.1728596687,10.6752700806,13.9192237854
1.4974325647669E+018,46.9008712769,-15.7376146317,20.2139987946,50,55.1815872192,33.9215126038,47.3399887085,65.9378585815,-3.2000160217,47.1171455383,64.6527252197,39.8734359741,5.1948800087,42.8898468018,44.6813011169,2.1728596687,10.6752700806,13.9192237854
1.49743256477622E+018,46.9008712769,-15.7376146317,17.9280128479,50,55.1815872192,33.9215126038,47.3399887085,65.9378585815,-3.2000160217,47.1171455383,64.6527252197,39.8734359741,5.1948800087,42.8898468018,44.6813011169,2.1728596687,10.6752700806,13.9192237854
1.49743256478557E+018,46.9008712769,-15.7376146317,17.9280128479,50,55.1815872192,35.6467895508,47.3399887085,65.9378585815,-3.2000160217,47.1171455383,64.6527252197,39.8734359741,6.2581381798,42.8898468018,44.6813011169,2.1728596687,12.2047348022,13.9192237854
1.49743256479494E+018,46.9008712769,-15.7376146317,17.9280128479,50,55.1815872192,34.7841529846,47.3399887085,65.9378585815,-3.2000160217,47.1171455383,64.6527252197,39.8734359741,6.2581381798,42.8898468018,43.8552856445,-0.0042877458,12.9694671631,13.9192237854
1.49743256480422E+018,46.9008712769,-15.7376146317,17.9280128479,50,55.1815872192,35.6467895508,47.3399887085,65.9378585815,5.764705658,47.1171455383,64.6527252197,43.8421897888,6.2581381798,42.8898468018,43.132522583,-4.3585720062,13.7342014313,13.1300983429
1.4974325648135E+018,46.9008712769,-15.7376146317,17.9280128479,50,55.1815872192,36.5094337463,47.3399887085,65.9378585815,5.764705658,47.1171455383,66.3152770996,44.4375,6.2581381798,41.4830780029,43.132522583,-7.0799980164,13.7342014313,12.735534668
1.4974325648228E+018,45.1339187622,-15.7376146317,17.9280128479,50,55.1815872192,36.5094337463,47.3399887085,65.9378585815,5.764705658,47.1171455383,66.3152770996,45.2312507629,6.2581381798,42.1864624023,42.7195129395,-7.8057141304,13.7342014313,12.735534668
1.49743256483203E+018,45.1339187622,-14.6190881729,22.5000038147,50,55.1815872192,36.5094337463,47.3399887085,65.9378585815,-0.2117767334,47.1171455383,67.1465454102,43.8421897888,6.2581381798,42.1864624023,43.132522583,-8.5314302445,13.7342014313,13.1300983429
1.49743256484125E+018,44.2504348755,-14.6190881729,24.7860088348,50,55.1815872192,36.5094337463,52.7188224792,65.9378585815,-6.1882362366,47.1171455383,67.1465454102,42.2546844482,8.3846464157,42.1864624023,43.5455284119,-9.9828557968,13.7342014313,13.5246610641
1.49743256485048E+018,44.2504348755,-13.5005531311,24.7860088348,50,56.9922714233,36.5094337463,55.4082374573,65.9378585815,-11.4176483154,47.1171455383,67.1465454102,40.6671905518,8.3846464157,42.1864624023,44.2682914734,-10.708571434,13.7342014313,13.5246610641
1.49743256485969E+018,43.5878295898,-12.941286087,27.0720119476,50,56.9922714233,36.5094337463,55.4082374573,65.9378585815,-17.3941268921,50.0200080872,67.1465454102,39.0796852112,9.4479045868,42.1864624023,44.6813011169,-11.4342880249,13.7342014313,13.5246610641
1.49743256486885E+018,43.5878295898,-12.382019043,29.3580169678,50,56.9922714233,36.5094337463,58.0976333618,65.9378585815,-20.3823471069,50.0200080872,67.1465454102,38.2859382629,9.4479045868,42.1864624023,45.0943069458,-11.4342880249,13.7342014313,13.5246610641
1.49743256487812E+018,43.5878295898,-11.8227519989,29.3580169678,50,56.9922714233,36.5094337463,58.0976333618,65.9378585815,-23.37059021,51.4714279175,67.1465454102,37.4921875,9.4479045868,42.1864624023,45.0943069458,-11.4342880249,13.7342014313,13.5246610641
1.49743256488736E+018,43.5878295898,-11.8227519989,29.3580169678,50,56.9922714233,36.5094337463,58.0976333618,65.9378585815,-20.3823471069,51.4714279175,67.1465454102,37.4921875,9.4479045868,42.1864624023,44.6813011169,-11.4342880249,13.7342014313,13.5246610641
1.49743256489662E+018,41.8208694458,-11.2634849548,29.3580169678,50,56.9922714233,35.6467895508,58.0976333618,65.9378585815,-20.3823471069,51.4714279175,67.1465454102,36.6984367371,9.4479045868,42.1864624023,44.6813011169,-11.4342880249,13.7342014313,13.5246610641
1.49743256490578E+018,41.8208694458,-11.2634849548,29.3580169678,50,56.9922714233,35.6467895508,58.0976333618,65.9378585815,-20.3823471069,51.4714279175,67.1465454102,36.6984367371,9.4479045868,42.1864624023,44.2682914734,-11.4342880249,13.7342014313,13.5246610641
1.49743256491507E+018,40.9373931885,-10.7042255402,29.3580169678,50,56.9922714233,35.6467895508,58.0976333618,65.9378585815,-20.3823471069,51.4714279175,67.1465454102,36.6984367371,9.4479045868,42.1864624023,44.2682914734,-11.4342880249,13.7342014313,13.5246610641
1.49743256492438E+018,40.9373931885,-11.2634849548,29.3580169678,50,56.9922714233,35.6467895508,58.0976333618,65.9378585815,-20.3823471069,51.4714279175,67.1465454102,36.6984367371,9.4479045868,42.1864624023,44.2682914734,-11.4342880249,13.7342014313,12.735534668
1.49743256493378E+018,40.0539169312,-11.2634849548,29.3580169678,50,56.9922714233,35.6467895508,58.0976333618,65.9378585815,-14.4058914185,48.5685768127,65.4840011597,36.6984367371,9.4479045868,42.1864624023,44.2682914734,-11.4342880249,12.2047348022,12.735534668
1.49743256494311E+018,38.2869567871,-11.8227519989,29.3580169678,50,55.1815872192,33.9215126038,58.0976333618,65.9378585815,-14.4058914185,48.5685768127,64.6527252197,36.6984367371,9.4479045868,42.1864624023,44.2682914734,-11.4342880249,12.2047348022,12.735534668
1.49743256495244E+018,36.5200042725,-11.8227519989,29.3580169678,50,54.2762374878,33.9215126038,52.7188224792,64.3050003052,-11.4176483154,47.1171455383,63.8214492798,36.6984367371,9.4479045868,42.8898468018,44.2682914734,-9.9828557968,12.2047348022,12.735534668
1.49743256496167E+018,34.7530441284,-12.382019043,24.7860088348,50,53.370891571,32.1962242126,52.7188224792,62.6721496582,-11.4176483154,45.6657142639,62.1589012146,36.6984367371,9.4479045868,42.8898468018,44.2682914734,-9.2571458817,11.4400024414,12.735534668
1.49743256497089E+018,32.1026077271,-12.941286087,24.7860088348,50,52.4655418396,31.3335876465,50.0294036865,61.85572052,-9.1764755249,44.2142944336,60.4963645935,36.6984367371,9.4479045868,42.8898468018,45.0943069458,-8.5314302445,11.4400024414,12.735534668
1.49743256498017E+018,31.2191314697,-13.5005531311,24.7860088348,50,51.7865257263,30.4709453583,50.0294036865,60.222858429,-6.1882362366,42.7628593445,58.8338165283,36.6984367371,7.3213963509,42.8898468018,45.0943069458,-7.8057141304,11.4400024414,12.735534668
1.49743256498936E+018,29.6730422974,-13.5005531311,22.5000038147,50,50.8811798096,28.9613227844,47.3399887085,58.5900001526,-3.2000160217,41.3114280701,57.1712684631,36.6984367371,6.2581381798,41.4830780029,45.5073165894,-7.0799980164,11.4400024414,12.735534668
1.49743256499859E+018,27.9060897827,-14.0598211288,22.5000038147,50,49.9758453369,28.0986785889,47.3399887085,57.7735671997,-0.2117767334,38.4085769653,55.7165489197,36.6984367371,5.1948800087,41.4830780029,45.5073165894,-6.3542876244,11.4400024414,12.735534668
1.49743256500778E+018,26.1391296387,-14.6190881729,20.2139987946,50,48.165145874,26.3733997345,45.3229370117,55.5283927917,5.764705658,37.3199958801,54.0539970398,35.9046859741,5.1948800087,40.7796936035,45.9203262329,-5.6285719872,11.4400024414,11.9464082718
1.49743256501704E+018,24.372177124,-14.6190881729,20.2139987946,50,47.2597999573,25.5107555389,42.633518219,53.8955345154,8.7529258728,35.8685760498,52.3914489746,35.9046859741,4.1316218376,40.0763092041,45.9203262329,-5.0842876434,11.4400024414,11.9464082718
1.49743256502628E+018,23.4886932373,-15.1783466339,20.2139987946,50,45.4491043091,24.6481132507,39.9441223145,53.0791053772,11.7411689758,34.4171447754,50.7289123535,35.9046859741,4.1316218376,40.0763092041,45.9203262329,-5.0842876434,12.9694671631,11.9464082718
1.49743256503544E+018,22.6052246094,-15.1783466339,20.2139987946,50,44.5437545776,23.7854766846,39.9441223145,51.4462547302,17.7176399231,31.5142822266,49.8976402283,35.9046859741,3.0683717728,38.8453865051,45.9203262329,-5.0842876434,12.9694671631,11.9464082718
1.4974325650447E+018,22.6052246094,-15.7376146317,15.6420078278,50,43.6384048462,22.922832489,37.2547073364,49.8133964539,17.7176399231,30.0628604889,48.2350883484,35.9046859741,2.0051136017,38.8453865051,45.9203262329,-5.0842876434,12.9694671631,11.9464082718
1.49743256505394E+018,21.7217407227,-15.7376146317,15.6420078278,50,42.7330703735,22.0601902008,37.2547073364,48.996963501,20.7058811188,30.0628604889,47.4038162231,35.1109390259,2.0051136017,38.1420021057,46.7463417053,-5.0842876434,13.7342014313,11.9464082718
1.49743256506314E+018,21.7217407227,-15.7376146317,13.3560037613,50,42.7330703735,22.0601902008,34.5652885437,47.3641052246,20.7058811188,28.6114292145,46.5725402832,35.1109390259,2.0051136017,37.4386138916,46.7463417053,-5.0842876434,13.7342014313,11.9464082718
1.49743256507238E+018,21.7217407227,-15.7376146317,13.3560037613,50,41.8277244568,21.1975460052,34.5652885437,46.5476875305,20.7058811188,28.6114292145,45.741268158,35.1109390259,2.0051136017,36.7352333069,47.1593475342,-5.0842876434,14.498922348,11.9464082718
1.49743256508165E+018,21.7217407227,-15.7376146317,11.0699987411,50,41.8277244568,21.1975460052,34.5652885437,44.9148254395,20.7058811188,27.1599979401,44.9100036621,35.1109390259,2.0051136017,36.7352333069,47.1593475342,-4.3585720062,14.498922348,11.9464082718
1.49743256509092E+018,21.7217407227,-15.7376146317,8.7840118408,50,40.9223747253,21.1975460052,34.5652885437,44.0983963013,20.7058811188,27.1599979401,44.0787315369,33.5234375,2.0051136017,36.0318489075,47.1593475342,-4.3585720062,14.498922348,11.9464082718
1.49743256510018E+018,19.9547805786,-15.7376146317,8.7840118408,50,40.9223747253,21.1975460052,34.5652885437,43.4860687256,20.7058811188,27.1599979401,43.4552726746,33.5234375,-0.1214027256,36.0318489075,47.1593475342,-4.3585720062,14.498922348,11.9464082718
1.4974325651095E+018,19.9547805786,-15.7376146317,6.4980072975,50,40.9223747253,21.1975460052,34.5652885437,42.6696395874,20.7058811188,27.1599979401,42.6239967346,32.7296905518,-0.1214027256,35.3284606934,47.1593475342,-4.3585720062,14.498922348,11.9464082718
1.49743256511879E+018,19.0713043213,-15.7376146317,6.4980072975,50,40.9223747253,21.1975460052,34.5652885437,41.8532218933,20.7058811188,27.1599979401,41.7927246094,32.7296905518,-0.1214027256,34.6250801086,47.1593475342,-4.3585720062,14.498922348,11.9464082718
1.49743256512813E+018,18.187828064,-15.7376146317,6.4980072975,50,40.9223747253,21.1975460052,34.5652885437,41.8532218933,20.7058811188,27.1599979401,41.7927246094,32.7296905518,-0.1214027256,34.6250801086,47.9853668213,-4.3585720062,14.498922348,11.9464082718
1.49743256513749E+018,17.3043441772,-15.7376146317,6.4980072975,50,40.9223747253,20.3349094391,34.5652885437,41.0367927551,20.7058811188,27.1599979401,41.7927246094,32.7296905518,-0.1214027256,34.6250801086,47.9853668213,-4.3585720062,15.8372077942,11.9464082718
1.49743256514691E+018,17.3043441772,-15.7376146317,6.4980072975,50,40.9223747253,20.3349094391,34.5652885437,41.0367927551,20.7058811188,25.7085762024,41.7927246094,32.7296905518,-0.1214027256,34.6250801086,47.9853668213,-5.0842876434,15.0724754333,12.340970993
1.49743256515618E+018,18.187828064,-15.7376146317,6.4980072975,50,40.9223747253,20.3349094391,34.5652885437,41.0367927551,20.7058811188,25.7085762024,41.7927246094,32.7296905518,-0.1214027256,34.6250801086,48.3983726501,-5.0842876434,15.8372077942,12.340970993
1.49743256516552E+018,19.0713043213,-15.7376146317,6.4980072975,50,40.9223747253,20.3349094391,34.5652885437,41.0367927551,20.7058811188,25.7085762024,41.7927246094,32.7296905518,-0.1214027256,34.6250801086,48.3983726501,-5.0842876434,15.8372077942,12.340970993
1.49743256517487E+018,20.8382644653,-15.7376146317,4.7835125923,50,42.7330703735,20.3349094391,39.9441223145,41.0367927551,14.7294082642,28.6114292145,41.7927246094,32.7296905518,-0.1214027256,34.6250801086,48.3983726501,-5.0842876434,15.8372077942,12.340970993
1.49743256518422E+018,23.4886932373,-15.1783466339,4.7835125923,50,43.6384048462,20.3349094391,42.633518219,41.0367927551,11.7411689758,30.0628604889,41.7927246094,31.3406276703,-0.1214027256,33.9216957092,48.3983726501,-5.0842876434,15.8372077942,12.340970993
1.49743256519351E+018,25.2556533813,-15.1783466339,4.7835125923,50,44.5437545776,20.3349094391,45.3229370117,41.0367927551,8.7529258728,31.5142822266,41.7927246094,31.3406276703,-0.1214027256,33.9216957092,48.3983726501,-6.3542876244,15.8372077942,12.340970993
1.49743256520274E+018,27.022605896,-15.1783466339,4.7835125923,50,45.4491043091,20.3349094391,47.3399887085,41.0367927551,5.764705658,32.965713501,43.4552726746,31.3406276703,-0.1214027256,33.9216957092,48.3983726501,-6.3542876244,15.8372077942,12.340970993
1.49743256521199E+018,28.78956604,-15.1783466339,4.7835125923,50,45.4491043091,20.3349094391,50.0294036865,41.0367927551,-0.2117767334,34.4171447754,44.0787315369,30.5468769073,-0.1214027256,33.9216957092,47.1593475342,-5.0842876434,15.8372077942,12.340970993
1.49743256522125E+018,29.6730422974,-15.1783466339,4.7835125923,50,45.4491043091,20.3349094391,50.0294036865,42.6696395874,-0.2117767334,32.965713501,44.9100036621,31.9359378815,-0.1214027256,33.9216957092,47.5723571777,-5.0842876434,16.601940155,12.340970993
1.49743256523042E+018,32.1026077271,-15.1783466339,4.7835125923,50,45.4491043091,20.3349094391,47.3399887085,43.4860687256,8.7529258728,31.5142822266,45.741268158,33.5234375,2.0051136017,35.3284606934,46.7463417053,-5.0842876434,16.601940155,12.340970993
1.49743256523957E+018,32.9860916138,-15.1783466339,4.7835125923,50,45.4491043091,20.3349094391,45.3229370117,44.0983963013,14.7294082642,31.5142822266,46.5725402832,34.3171882629,2.0051136017,36.0318489075,46.7463417053,-5.0842876434,16.601940155,12.340970993
1.49743256524879E+018,33.8695678711,-15.1783466339,4.7835125923,50,45.4491043091,20.3349094391,45.3229370117,45.7312545776,11.7411689758,31.5142822266,47.4038162231,34.3171882629,2.0051136017,36.7352333069,46.3333358765,-5.0842876434,16.601940155,12.340970993
1.49743256525805E+018,35.6365203857,-16.2968826294,4.7835125923,50,45.4491043091,22.0601902008,45.3229370117,46.5476875305,11.7411689758,31.5142822266,48.2350883484,34.3171882629,3.0683717728,37.4386138916,46.3333358765,-5.0842876434,16.601940155,12.340970993
1.49743256526724E+018,37.4034805298,-16.2968826294,4.7835125923,50,45.4491043091,22.0601902008,45.3229370117,47.3641052246,11.7411689758,31.5142822266,49.0663642883,34.3171882629,3.0683717728,37.4386138916,45.9203262329,-3.6328561306,16.601940155,12.340970993
1.49743256527644E+018,39.1704330444,-16.2968826294,4.7835125923,50,45.4491043091,22.0601902008,45.3229370117,48.996963501,11.7411689758,31.5142822266,50.7289123535,34.3171882629,4.1316218376,38.1420021057,45.9203262329,-2.9071457386,16.601940155,12.340970993
1.49743256528573E+018,40.9373931885,-16.2968826294,4.7835125923,50,45.4491043091,22.922832489,45.3229370117,49.8133964539,11.7411689758,31.5142822266,51.5601768494,35.9046859741,4.1316218376,38.8453865051,45.0943069458,-2.181429863,16.601940155,12.340970993
1.49743256529501E+018,42.7043533325,-16.2968826294,4.7835125923,50,45.4491043091,22.922832489,45.3229370117,51.4462547302,11.7411689758,32.965713501,52.3914489746,36.6984367371,4.1316218376,39.5487709045,45.0943069458,-2.181429863,16.601940155,12.340970993
1.49743256530432E+018,45.1339187622,-16.2968826294,4.7835125923,50,47.2597999573,22.922832489,45.3229370117,53.0791053772,17.7176399231,32.965713501,54.0539970398,37.4921875,4.1316218376,39.5487709045,45.0943069458,-1.4557139874,16.601940155,12.340970993
1.49743256531359E+018,47.7843475342,-16.2968826294,4.7835125923,50,47.2597999573,22.922832489,45.3229370117,53.8955345154,17.7176399231,32.965713501,55.7165489197,37.4921875,4.1316218376,40.0763092041,45.0943069458,-0.7299981713,16.601940155,12.340970993
1.49743256532291E+018,50.4347839355,-16.2968826294,4.7835125923,50,48.165145874,22.922832489,45.3229370117,55.5283927917,17.7176399231,32.965713501,56.5478210449,38.2859382629,4.1316218376,40.7796936035,45.0943069458,-0.0042877458,15.8372077942,12.340970993
1.49743256533219E+018,53.0852203369,-16.8561477661,0.2115036845,50,48.165145874,22.922832489,45.3229370117,56.3448257446,20.7058811188,32.965713501,58.0025405884,39.0796852112,6.2581381798,41.4830780029,44.2682914734,0.7214280963,15.8372077942,12.340970993
1.49743256534144E+018,54.8521728516,-16.8561477661,-2.0745007992,50,48.165145874,22.922832489,45.3229370117,56.9571495056,23.6941108704,35.8685760498,58.8338165283,39.8734359741,6.2581381798,41.4830780029,43.8552856445,1.4471439123,15.8372077942,11.9464082718
1.49743256535066E+018,55.7356491089,-16.8561477661,-6.6464924812,50,48.165145874,22.922832489,45.3229370117,57.7735671997,26.682352066,35.8685760498,59.6650924683,40.6671905518,6.2581381798,42.1864624023,43.5455284119,2.1728596687,15.8372077942,11.9464082718
1.49743256535984E+018,56.6191329956,-16.8561477661,-11.2184839249,50,48.165145874,22.922832489,45.3229370117,58.5900001526,29.670583725,34.4171447754,60.4963645935,41.4609413147,6.2581381798,42.8898468018,43.132522583,2.1728596687,15.8372077942,11.9464082718
1.49743256536915E+018,57.2817459106,-16.8561477661,-15.7904930115,50,48.165145874,23.7854766846,45.3229370117,58.5900001526,32.6588134766,35.8685760498,60.4963645935,41.4609413147,6.2581381798,43.5932350159,43.132522583,2.1728596687,15.8372077942,11.9464082718
1.49743256537842E+018,58.165222168,-16.8561477661,-20.3624839783,50,48.165145874,23.7854766846,42.633518219,59.4064292908,29.670583725,35.8685760498,61.3276405334,41.4609413147,6.2581381798,44.2966156006,43.132522583,3.6242859364,15.8372077942,11.9464082718
