%time,field.position0,field.position1,field.position2,field.position3,field.position4,field.position5,field.position6,field.position7,field.position8,field.position9,field.position10,field.position11,field.position12,field.position13,field.position14,field.position15,field.position16,field.position17
1.49743294015303E+018,65.233039856,-18.9533958435,-22.6484889984,50,53.370891571,22.0601902008,45.3229370117,56.9571495056,32.6588134766,44.2142944336,62.9901771545,42.2546844482,8.3846464157,56.7816886902,32.0845527649,6.3457121849,13.7342014313,10.7627191544
1.49743294016229E+018,65.233039856,-18.9533958435,-24.9344940186,50,53.370891571,22.0601902008,45.3229370117,57.7735671997,32.6588134766,44.2142944336,64.6527252197,42.2546844482,8.3846464157,56.7816886902,32.0845527649,5.8014278412,13.7342014313,9.9735927582
1.49743294017159E+018,65.233039856,-18.9533958435,-27.2204971313,50,53.370891571,22.0601902008,45.3229370117,57.7735671997,32.6588134766,44.2142944336,64.6527252197,42.2546844482,8.3846464157,56.7816886902,32.0845527649,5.075712204,13.7342014313,9.9735927582
1.49743294018098E+018,65.233039856,-18.9533958435,-29.5064849854,50,53.370891571,22.0601902008,45.3229370117,58.5900001526,32.6588134766,44.2142944336,64.6527252197,42.2546844482,9.4479045868,56.7816886902,32.0845527649,4.350001812,13.7342014313,9.9735927582
1.49743294019031E+018,65.233039856,-20.0719299316,-29.5064849854,50,53.370891571,22.0601902008,45.3229370117,58.5900001526,32.6588134766,44.2142944336,64.6527252197,40.6671905518,9.4479045868,56.7816886902,32.0845527649,3.6242859364,13.7342014313,9.9735927582
1.49743294019965E+018,65.233039856,-19.5126609802,-31.2209968567,50,53.370891571,23.7854766846,45.3229370117,59.4064292908,32.6588134766,44.2142944336,64.6527252197,39.8734359741,9.4479045868,56.7816886902,32.0845527649,3.6242859364,13.7342014313,9.9735927582
1.49743294020897E+018,66.1165161133,-20.0719299316,-33.5069847107,50,53.370891571,23.7854766846,45.3229370117,60.222858429,32.6588134766,45.6657142639,64.6527252197,39.8734359741,9.4479045868,56.7816886902,32.0845527649,2.8985700607,13.7342014313,9.9735927582
1.49743294021827E+018,66.1165161133,-20.0719299316,-35.7929878235,50,53.370891571,23.7854766846,45.3229370117,60.222858429,32.6588134766,45.6657142639,64.6527252197,39.8734359741,9.4479045868,56.7816886902,32.0845527649,2.8985700607,14.498922348,9.9735927582
1.49743294022757E+018,66.1165161133,-20.0719299316,-35.7929878235,50,53.370891571,24.6481132507,47.3399887085,61.0392875671,32.6588134766,45.6657142639,66.3152770996,39.8734359741,10.5111627579,56.7816886902,32.0845527649,2.8985700607,14.498922348,9.9735927582
1.49743294023678E+018,66.1165161133,-20.0719299316,-38.078994751,50,53.370891571,25.5107555389,47.3399887085,61.0392875671,32.6588134766,45.6657142639,66.3152770996,39.8734359741,10.5111627579,56.7816886902,32.0845527649,2.8985700607,14.498922348,9.9735927582
1.49743294024605E+018,66.1165161133,-20.0719299316,-40.3649978638,50,53.370891571,25.5107555389,47.3399887085,61.85572052,32.6588134766,45.6657142639,66.3152770996,39.8734359741,10.5111627579,56.7816886902,32.0845527649,2.8985700607,14.498922348,9.9735927582
1.49743294025531E+018,66.1165161133,-20.0719299316,-40.3649978638,50,53.370891571,26.3733997345,47.3399887085,62.6721496582,32.6588134766,45.6657142639,66.3152770996,38.2859382629,10.5111627579,57.4850769043,32.0845527649,2.8985700607,14.498922348,9.9735927582
1.49743294026462E+018,65.233039856,-20.0719299316,-42.6509857178,50,53.370891571,26.3733997345,47.3399887085,62.6721496582,32.6588134766,45.6657142639,66.3152770996,38.2859382629,10.5111627579,57.4850769043,32.0845527649,2.8985700607,14.498922348,9.9735927582
1.49743294027385E+018,65.233039856,-20.0719299316,-44.9369888306,50,53.370891571,27.2360363007,47.3399887085,63.4885673523,32.6588134766,47.1171455383,66.3152770996,37.4921875,10.5111627579,57.4850769043,32.0845527649,2.8985700607,14.498922348,9.9735927582
1.49743294028311E+018,65.233039856,-21.1904640198,-47.2229919434,50,53.370891571,27.2360363007,47.3399887085,64.3050003052,26.682352066,47.1171455383,66.3152770996,37.4921875,10.5111627579,57.4850769043,32.0845527649,4.350001812,14.498922348,9.9735927582
1.49743294029239E+018,65.233039856,-21.1904640198,-47.2229919434,50,53.370891571,27.2360363007,47.3399887085,64.3050003052,26.682352066,47.1171455383,66.3152770996,36.6984367371,10.5111627579,57.4850769043,32.0845527649,4.350001812,14.498922348,9.9735927582
1.49743294030167E+018,65.233039856,-21.7497310638,-49.5089797974,50,53.370891571,27.2360363007,52.7188224792,65.9378585815,23.6941108704,47.1171455383,66.3152770996,35.9046859741,10.5111627579,57.4850769043,32.0845527649,5.075712204,14.498922348,9.9735927582
1.49743294031094E+018,65.233039856,-22.3089981079,-49.5089797974,50,53.370891571,27.2360363007,52.7188224792,66.7542877197,17.7176399231,47.1171455383,67.9778213501,35.1109390259,10.5111627579,57.4850769043,32.9105682373,5.8014278412,14.498922348,9.5790300369
1.49743294032018E+018,65.233039856,-22.8682575226,-51.7949867249,50,55.1815872192,27.2360363007,55.4082374573,67.5707168579,11.7411689758,50.0200080872,67.9778213501,34.3171882629,10.5111627579,57.4850769043,32.9105682373,5.8014278412,14.498922348,9.5790300369
1.49743294032939E+018,65.233039856,-23.4275245667,-51.7949867249,50,55.1815872192,27.2360363007,55.4082374573,68.3871459961,5.764705658,51.4714279175,68.8090820312,32.7296905518,10.5111627579,57.4850769043,33.3235778809,5.8014278412,14.498922348,9.5790300369
1.49743294033862E+018,65.233039856,-23.4275245667,-51.7949867249,50,56.0869216919,28.0986785889,58.0976333618,69.2035675049,2.7764663696,52.9228591919,68.8090820312,31.9359378815,10.5111627579,57.4850769043,33.3235778809,5.8014278412,14.498922348,9.5790300369
1.49743294034791E+018,67,-23.4275245667,-51.7949867249,50,56.0869216919,28.0986785889,58.0976333618,69.2035675049,2.7764663696,54.374294281,68.8090820312,31.3406276703,10.5111627579,57.4850769043,33.3235778809,5.8014278412,14.498922348,9.5790300369
1.49743294035713E+018,67,-23.4275245667,-51.7949867249,50,56.9922714233,28.0986785889,58.0976333618,69.8158950806,-0.2117767334,54.374294281,68.8090820312,31.3406276703,10.5111627579,57.4850769043,33.3235778809,5.8014278412,14.498922348,9.5790300369
1.49743294036644E+018,67,-23.4275245667,-51.7949867249,50,56.9922714233,28.0986785889,58.0976333618,69.8158950806,-0.2117767334,55.8257141113,68.8090820312,30.5468769073,12.6376714706,57.4850769043,33.3235778809,5.8014278412,14.498922348,9.5790300369
1.4974329403758E+018,67.8834762573,-23.4275245667,-51.7949867249,50,56.9922714233,28.0986785889,58.0976333618,69.8158950806,-0.2117767334,55.8257141113,68.8090820312,29.7531242371,12.6376714706,57.4850769043,33.3235778809,5.8014278412,14.498922348,9.5790300369
1.49743294038515E+018,67.8834762573,-23.4275245667,-54.0809898376,50,56.9922714233,28.0986785889,58.0976333618,69.8158950806,-0.2117767334,57.2771453857,68.8090820312,28.9593734741,12.6376714706,57.4850769043,33.3235778809,5.8014278412,14.498922348,9.9735927582
1.49743294039449E+018,67.8834762573,-23.9867916107,-54.0809898376,50,56.9922714233,28.0986785889,58.0976333618,69.8158950806,-0.2117767334,57.2771453857,68.8090820312,28.1656265259,12.6376714706,57.4850769043,33.3235778809,5.8014278412,13.7342014313,9.9735927582
1.49743294040382E+018,67.8834762573,-23.9867916107,-54.0809898376,50,58.8029670715,28.0986785889,58.0976333618,69.8158950806,-0.2117767334,58.7285766602,68.8090820312,27.3718757629,12.6376714706,57.4850769043,33.3235778809,6.3457121849,13.7342014313,9.9735927582
1.49743294041319E+018,67.8834762573,-23.9867916107,-54.0809898376,50,58.8029670715,28.0986785889,63.4764671326,68.3871459961,-0.2117767334,58.7285766602,68.8090820312,26.5781230927,12.6376714706,57.4850769043,33.3235778809,6.3457121849,13.7342014313,9.9735927582
1.4974329404225E+018,67.8834762573,-23.9867916107,-54.0809898376,50,58.8029670715,28.0986785889,63.4764671326,67.5707168579,-6.1882362366,60.1800079346,68.8090820312,25.7843723297,12.6376714706,57.4850769043,33.3235778809,6.3457121849,13.7342014313,9.9735927582
1.49743294043193E+018,67.8834762573,-23.9867916107,-54.0809898376,50,58.8029670715,28.0986785889,63.4764671326,67.5707168579,-6.1882362366,60.1800079346,68.8090820312,25.7843723297,12.6376714706,57.4850769043,32.9105682373,6.3457121849,13.7342014313,9.9735927582
1.49743294044125E+018,68.7669525146,-23.9867916107,-54.0809898376,50,58.8029670715,28.0986785889,63.4764671326,66.7542877197,-6.1882362366,61.2685775757,68.8090820312,25.7843723297,13.7009296417,57.4850769043,32.9105682373,6.3457121849,12.2047348022,9.9735927582
1.49743294045059E+018,68.7669525146,-23.9867916107,-51.7949867249,50,58.8029670715,28.0986785889,63.4764671326,65.9378585815,-9.1764755249,61.2685775757,68.8090820312,25.7843723297,13.7009296417,57.4850769043,32.9105682373,6.3457121849,12.2047348022,10.3681564331
1.49743294045988E+018,68.7669525146,-23.9867916107,-51.7949867249,50,58.8029670715,28.0986785889,63.4764671326,65.9378585815,-6.1882362366,61.2685775757,67.1465454102,25.7843723297,13.7009296417,57.4850769043,32.9105682373,7.0714278221,12.2047348022,10.3681564331
1.4974329404691E+018,68.7669525146,-23.9867916107,-51.7949867249,50,58.8029670715,27.2360363007,63.4764671326,65.1214294434,-9.1764755249,61.2685775757,67.1465454102,25.7843723297,13.7009296417,57.4850769043,32.9105682373,7.0714278221,12.2047348022,10.3681564331
1.49743294047837E+018,68.7669525146,-22.8682575226,-51.7949867249,50,58.8029670715,27.2360363007,63.4764671326,64.3050003052,-9.1764755249,61.2685775757,67.1465454102,25.7843723297,13.7009296417,57.4850769043,32.9105682373,7.0714278221,12.2047348022,10.3681564331
1.4974329404878E+018,68.7669525146,-22.8682575226,-51.7949867249,50,58.8029670715,27.2360363007,63.4764671326,64.3050003052,-9.1764755249,61.2685775757,67.1465454102,24.9906272888,14.7641878128,57.4850769043,32.9105682373,7.0714278221,12.2047348022,10.3681564331
1.49743294049722E+018,68.7669525146,-22.8682575226,-51.7949867249,50,58.8029670715,27.2360363007,63.4764671326,63.4885673523,-9.1764755249,61.2685775757,67.1465454102,24.9906272888,14.7641878128,57.4850769043,32.9105682373,7.0714278221,12.2047348022,10.3681564331
1.49743294050661E+018,68.7669525146,-22.8682575226,-51.7949867249,50,58.8029670715,27.2360363007,63.4764671326,63.4885673523,-9.1764755249,61.2685775757,67.1465454102,24.9906272888,14.7641878128,57.4850769043,32.9105682373,7.0714278221,12.2047348022,10.3681564331
1.49743294051609E+018,68.7669525146,-22.8682575226,-47.2229919434,50,58.8029670715,27.2360363007,66.1658859253,62.6721496582,-9.1764755249,61.2685775757,67.1465454102,24.9906272888,14.7641878128,56.7816886902,33.7365875244,8.5228595734,12.2047348022,10.3681564331
1.49743294052542E+018,68.7669525146,-22.8682575226,-47.2229919434,50,58.8029670715,27.2360363007,66.1658859253,62.6721496582,-9.1764755249,61.2685775757,67.1465454102,23.4031238556,14.7641878128,56.7816886902,33.7365875244,8.5228595734,11.4400024414,10.7627191544
1.4974329405348E+018,68.7669525146,-22.8682575226,-47.2229919434,50,58.8029670715,27.2360363007,66.1658859253,62.6721496582,-9.1764755249,62.7200088501,65.4840011597,24.1968746185,14.7641878128,56.7816886902,33.7365875244,8.5228595734,11.4400024414,10.7627191544
1.49743294054403E+018,68.7669525146,-22.8682575226,-44.9369888306,50,58.8029670715,27.2360363007,66.1658859253,62.6721496582,-9.1764755249,62.7200088501,66.3152770996,24.1968746185,14.7641878128,56.7816886902,33.7365875244,9.2485704422,11.4400024414,10.7627191544
1.49743294055342E+018,68.7669525146,-22.3089981079,-44.9369888306,50,58.8029670715,27.2360363007,66.1658859253,62.6721496582,-9.1764755249,62.7200088501,65.4840011597,24.1968746185,14.7641878128,56.7816886902,33.7365875244,9.2485704422,11.4400024414,10.7627191544
1.4974329405628E+018,67,-22.3089981079,-44.9369888306,50,58.8029670715,27.2360363007,66.1658859253,62.6721496582,-11.4176483154,62.7200088501,65.4840011597,24.1968746185,14.7641878128,56.7816886902,33.7365875244,9.2485704422,11.4400024414,10.7627191544
1.49743294057211E+018,67,-22.3089981079,-44.9369888306,50,58.8029670715,27.2360363007,66.1658859253,62.6721496582,-11.4176483154,62.7200088501,65.4840011597,24.1968746185,14.7641878128,56.0783119202,34.5626029968,9.2485704422,10.6752700806,10.7627191544
1.49743294058129E+018,67,-22.3089981079,-44.9369888306,50,58.8029670715,27.2360363007,66.1658859253,62.6721496582,-11.4176483154,62.7200088501,65.4840011597,24.1968746185,13.7009296417,56.0783119202,34.5626029968,9.2485704422,10.6752700806,10.7627191544
1.49743294059043E+018,66.1165161133,-22.3089981079,-44.9369888306,50,58.8029670715,27.2360363007,66.1658859253,61.85572052,-11.4176483154,62.7200088501,65.4840011597,24.1968746185,13.7009296417,56.0783119202,34.5626029968,9.2485704422,10.6752700806,10.7627191544
1.49743294059964E+018,65.233039856,-22.3089981079,-44.9369888306,50,58.8029670715,27.2360363007,66.1658859253,61.85572052,-11.4176483154,62.7200088501,65.4840011597,24.1968746185,13.7009296417,56.0783119202,34.9756088257,10.7000017166,10.6752700806,10.7627191544
1.49743294060873E+018,64.349571228,-22.3089981079,-44.9369888306,50,58.8029670715,27.2360363007,66.1658859253,61.85572052,-11.4176483154,62.7200088501,65.4840011597,24.1968746185,13.7009296417,56.0783119202,34.9756088257,9.9742860794,10.6752700806,10.7627191544
1.497432940618E+018,63.4660949707,-22.3089981079,-40.3649978638,50,58.8029670715,27.2360363007,66.1658859253,61.85572052,-11.4176483154,62.7200088501,65.4840011597,24.1968746185,13.7009296417,56.0783119202,34.9756088257,9.9742860794,10.6752700806,10.7627191544
1.49743294062726E+018,63.4660949707,-22.3089981079,-40.3649978638,50,58.8029670715,27.2360363007,66.1658859253,61.85572052,-11.4176483154,60.1800079346,65.4840011597,24.1968746185,13.7009296417,56.0783119202,34.9756088257,9.9742860794,10.6752700806,10.7627191544
1.49743294063658E+018,62.582611084,-22.3089981079,-40.3649978638,50,58.8029670715,28.9613227844,66.1658859253,61.85572052,-11.4176483154,60.1800079346,65.4840011597,25.7843723297,13.7009296417,56.0783119202,34.9756088257,9.9742860794,10.6752700806,10.7627191544
1.49743294064592E+018,61.6991348267,-22.3089981079,-40.3649978638,50,58.8029670715,28.9613227844,66.1658859253,61.85572052,-11.4176483154,58.7285766602,65.4840011597,26.5781230927,13.7009296417,56.0783119202,35.8016281128,9.9742860794,10.6752700806,10.7627191544
1.49743294065527E+018,61.6991348267,-22.3089981079,-40.3649978638,50,58.8029670715,29.8239650726,63.4764671326,61.85572052,-11.4176483154,58.7285766602,65.4840011597,26.5781230927,13.7009296417,56.0783119202,36.2146339417,9.9742860794,11.4400024414,10.7627191544
1.49743294066457E+018,60.8156509399,-22.3089981079,-40.3649978638,50,58.8029670715,29.8239650726,63.4764671326,63.4885673523,-11.4176483154,57.2771453857,65.4840011597,27.3718757629,11.5744132996,56.0783119202,36.2146339417,8.5228595734,11.4400024414,10.7627191544
1.49743294067379E+018,60.8156509399,-22.3089981079,-40.3649978638,50,58.8029670715,30.4709453583,63.4764671326,63.4885673523,-11.4176483154,55.8257141113,65.4840011597,28.1656265259,11.5744132996,56.0783119202,36.6276397705,8.5228595734,11.4400024414,10.7627191544
1.49743294068312E+018,59.9321746826,-22.8682575226,-40.3649978638,50,58.8029670715,31.3335876465,63.4764671326,64.3050003052,-14.4058914185,55.8257141113,65.4840011597,28.9593734741,11.5744132996,56.0783119202,36.6276397705,7.7971439362,11.4400024414,10.7627191544
1.49743294069239E+018,59.9321746826,-22.8682575226,-40.3649978638,50,57.8976173401,32.1962242126,63.4764671326,64.3050003052,-14.4058914185,55.8257141113,65.4840011597,29.7531242371,11.5744132996,56.0783119202,36.6276397705,7.7971439362,11.4400024414,10.3681564331
1.49743294070172E+018,59.9321746826,-22.8682575226,-40.3649978638,50,57.8976173401,33.0588684082,63.4764671326,65.1214294434,-14.4058914185,55.8257141113,65.4840011597,30.5468769073,11.5744132996,56.0783119202,36.6276397705,7.7971439362,11.4400024414,10.3681564331
1.49743294071096E+018,59.9321746826,-22.8682575226,-44.9369888306,50,57.8976173401,33.0588684082,63.4764671326,65.1214294434,-14.4058914185,55.8257141113,65.4840011597,30.5468769073,11.5744132996,56.0783119202,36.6276397705,7.7971439362,11.4400024414,10.3681564331
1.49743294072027E+018,59.9321746826,-22.8682575226,-44.9369888306,50,57.8976173401,33.9215126038,60.7870521545,65.1214294434,-14.4058914185,55.8257141113,65.4840011597,30.5468769073,11.5744132996,56.0783119202,36.6276397705,7.7971439362,11.4400024414,10.3681564331
1.49743294072967E+018,59.9321746826,-22.8682575226,-44.9369888306,50,57.8976173401,34.7841529846,60.7870521545,65.1214294434,-17.3941268921,52.9228591919,65.4840011597,30.5468769073,11.5744132996,56.0783119202,36.6276397705,7.7971439362,11.4400024414,10.3681564331
1.49743294073898E+018,59.9321746826,-22.8682575226,-47.2229919434,50,57.8976173401,35.6467895508,60.7870521545,65.1214294434,-17.3941268921,52.9228591919,65.4840011597,30.5468769073,10.5111627579,56.0783119202,36.6276397705,7.7971439362,11.4400024414,10.3681564331
1.49743294074831E+018,59.9321746826,-22.8682575226,-47.2229919434,50,57.8976173401,35.6467895508,60.7870521545,65.1214294434,-17.3941268921,52.9228591919,65.4840011597,30.5468769073,10.5111627579,56.0783119202,36.6276397705,7.7971439362,11.4400024414,10.3681564331
1.49743294075765E+018,59.9321746826,-23.4275245667,-47.2229919434,50,56.9922714233,36.5094337463,60.7870521545,66.7542877197,-17.3941268921,52.9228591919,66.3152770996,30.5468769073,10.5111627579,56.0783119202,36.6276397705,7.7971439362,11.4400024414,10.3681564331
1.4974329407669E+018,58.165222168,-23.4275245667,-47.2229919434,50,56.9922714233,37.3720779419,60.7870521545,66.7542877197,-17.3941268921,52.9228591919,66.3152770996,30.5468769073,10.5111627579,56.0783119202,36.6276397705,7.7971439362,11.4400024414,10.3681564331
1.49743294077611E+018,58.165222168,-23.4275245667,-47.2229919434,50,56.9922714233,38.2347221375,60.7870521545,67.5707168579,-17.3941268921,52.9228591919,66.3152770996,31.9359378815,10.5111627579,56.0783119202,36.6276397705,7.7971439362,11.4400024414,10.3681564331
1.49743294078543E+018,57.2817459106,-23.4275245667,-51.7949867249,50,56.9922714233,39.0973625183,60.7870521545,67.5707168579,-17.3941268921,52.9228591919,66.3152770996,31.9359378815,9.4479045868,56.0783119202,36.6276397705,7.7971439362,11.4400024414,10.3681564331
1.4974329407947E+018,57.2817459106,-23.4275245667,-51.7949867249,50,56.9922714233,39.9599952698,60.7870521545,67.5707168579,-17.3941268921,52.9228591919,66.3152770996,32.7296905518,9.4479045868,56.0783119202,36.6276397705,7.7971439362,11.4400024414,10.3681564331
1.49743294080408E+018,56.6191329956,-23.4275245667,-51.7949867249,50,56.9922714233,40.8226394653,60.7870521545,67.5707168579,-17.3941268921,50.0200080872,66.3152770996,32.7296905518,9.4479045868,56.0783119202,36.6276397705,7.7971439362,11.4400024414,10.3681564331
1.49743294081351E+018,56.6191329956,-23.4275245667,-51.7949867249,50,56.9922714233,41.6852798462,60.7870521545,67.5707168579,-20.3823471069,50.0200080872,66.3152770996,33.5234375,9.4479045868,56.0783119202,36.6276397705,7.7971439362,11.4400024414,10.3681564331
1.49743294082283E+018,55.7356491089,-23.4275245667,-51.7949867249,50,56.9922714233,42.5479240417,60.7870521545,69.2035675049,-20.3823471069,48.5685768127,66.3152770996,33.5234375,9.4479045868,56.7816886902,37.0406494141,6.3457121849,11.4400024414,10.3681564331
1.49743294083215E+018,54.8521728516,-24.5460586548,-51.7949867249,50,56.9922714233,43.1949081421,58.0976333618,69.2035675049,-20.3823471069,48.5685768127,67.1465454102,34.3171882629,9.4479045868,56.7816886902,37.0406494141,7.0714278221,11.4400024414,10.3681564331
1.4974329408414E+018,54.8521728516,-24.5460586548,-51.7949867249,50,56.9922714233,44.9201850891,58.0976333618,69.8158950806,-20.3823471069,47.1171455383,67.1465454102,34.3171882629,9.4479045868,56.7816886902,37.0406494141,7.0714278221,11.4400024414,10.3681564331
1.49743294085069E+018,53.9686889648,-25.1053256989,-51.7949867249,50,56.9922714233,45.78282547,58.0976333618,69.8158950806,-20.3823471069,47.1171455383,67.1465454102,34.3171882629,7.3213963509,56.7816886902,37.7634162903,6.3457121849,11.4400024414,10.3681564331
1.49743294085997E+018,53.0852203369,-25.1053256989,-51.7949867249,50,56.0869216919,46.6454696655,58.0976333618,69.8158950806,-20.3823471069,47.1171455383,67.1465454102,34.3171882629,7.3213963509,56.7816886902,38.1764221191,6.3457121849,11.4400024414,10.3681564331
1.49743294086925E+018,52.2017440796,-25.6645927429,-56.3669929504,50,56.0869216919,48.3707580566,58.0976333618,69.8158950806,-20.3823471069,47.1171455383,67.1465454102,34.3171882629,7.3213963509,56.7816886902,38.1764221191,6.3457121849,11.4400024414,10.3681564331
1.4974329408786E+018,52.2017440796,-25.6645927429,-56.3669929504,50,56.0869216919,49.2333984375,58.0976333618,69.8158950806,-20.3823471069,47.1171455383,67.1465454102,34.3171882629,7.3213963509,56.0783119202,38.1764221191,6.3457121849,11.4400024414,10.7627191544
1.49743294088789E+018,51.3182601929,-25.6645927429,-56.3669929504,50,56.0869216919,50.0960426331,58.0976333618,69.8158950806,-20.3823471069,47.1171455383,67.1465454102,34.3171882629,7.3213963509,56.0783119202,38.1764221191,6.3457121849,11.4400024414,10.7627191544
1.49743294089718E+018,51.3182601929,-25.6645927429,-56.3669929504,50,56.0869216919,50.9586715698,58.0976333618,71.4487533569,-20.3823471069,47.1171455383,67.1465454102,34.3171882629,7.3213963509,56.0783119202,38.1764221191,6.3457121849,11.4400024414,10.7627191544
1.49743294090644E+018,50.4347839355,-25.6645927429,-56.3669929504,50,56.0869216919,51.8213157654,58.0976333618,71.4487533569,-26.358833313,44.2142944336,67.1465454102,34.3171882629,7.3213963509,56.0783119202,39.0024375916,6.3457121849,11.4400024414,10.7627191544
1.49743294091578E+018,50.4347839355,-25.6645927429,-56.3669929504,50,56.0869216919,52.6839599609,55.4082374573,71.4487533569,-26.358833313,44.2142944336,67.1465454102,34.3171882629,7.3213963509,54.6715431213,39.828453064,6.3457121849,11.4400024414,10.7627191544
1.49743294092485E+018,49.5513076782,-25.6645927429,-56.3669929504,50,56.0869216919,53.5466041565,55.4082374573,72.2651824951,-29.347076416,44.2142944336,67.1465454102,34.3171882629,5.1948800087,54.6715431213,40.2414627075,6.3457121849,10.6752700806,10.7627191544
1.49743294093409E+018,49.5513076782,-25.6645927429,-56.3669929504,50,56.0869216919,53.5466041565,55.4082374573,72.2651824951,-29.347076416,44.2142944336,67.1465454102,34.3171882629,5.1948800087,54.6715431213,40.2414627075,6.3457121849,10.6752700806,10.7627191544
1.49743294094336E+018,49.5513076782,-25.6645927429,-56.3669929504,50,56.0869216919,54.4092445374,55.4082374573,72.2651824951,-29.347076416,44.2142944336,67.1465454102,34.3171882629,5.1948800087,54.6715431213,40.2414627075,6.3457121849,10.6752700806,10.7627191544
1.49743294095257E+018,49.5513076782,-25.6645927429,-56.3669929504,50,56.0869216919,55.2718887329,55.4082374573,72.2651824951,-29.347076416,44.2142944336,67.1465454102,34.3171882629,5.1948800087,54.6715431213,40.2414627075,6.3457121849,10.6752700806,10.7627191544
1.49743294096185E+018,49.5513076782,-25.6645927429,-56.3669929504,50,56.0869216919,55.2718887329,55.4082374573,72.2651824951,-29.347076416,44.2142944336,67.1465454102,34.3171882629,5.1948800087,54.6715431213,40.2414627075,6.3457121849,10.6752700806,10.7627191544
1.49743294097123E+018,49.5513076782,-24.5460586548,-56.3669929504,50,56.0869216919,56.1345329285,55.4082374573,72.2651824951,-29.347076416,44.2142944336,67.9778213501,34.3171882629,5.1948800087,54.6715431213,40.2414627075,7.0714278221,10.6752700806,10.7627191544
1.49743294098054E+018,47.7843475342,-24.5460586548,-56.3669929504,50,56.0869216919,56.7815055847,55.4082374573,72.2651824951,-29.347076416,44.2142944336,67.9778213501,34.3171882629,5.1948800087,54.6715431213,40.2414627075,7.0714278221,10.6752700806,10.7627191544
1.49743294098981E+018,47.7843475342,-24.5460586548,-56.3669929504,50,56.0869216919,56.7815055847,55.4082374573,73.8980331421,-29.347076416,42.7628593445,67.9778213501,32.7296905518,5.1948800087,54.6715431213,40.2414627075,7.0714278221,10.6752700806,10.7627191544
1.49743294099909E+018,47.7843475342,-23.9867916107,-56.3669929504,50,56.0869216919,57.6441497803,55.4082374573,73.8980331421,-35.3235321045,42.7628593445,67.9778213501,33.5234375,5.1948800087,54.6715431213,40.6544723511,7.0714278221,10.6752700806,10.7627191544
1.49743294100825E+018,47.7843475342,-23.4275245667,-56.3669929504,50,56.0869216919,58.5067901611,55.4082374573,73.8980331421,-35.3235321045,42.7628593445,67.9778213501,33.5234375,5.1948800087,54.6715431213,40.6544723511,7.0714278221,10.6752700806,10.7627191544
1.49743294101754E+018,47.7843475342,-23.4275245667,-56.3669929504,50,56.0869216919,59.3694343567,55.4082374573,73.8980331421,-35.3235321045,42.7628593445,67.9778213501,33.5234375,4.1316218376,54.6715431213,40.6544723511,7.0714278221,10.6752700806,10.7627191544
1.49743294102679E+018,47.7843475342,-22.8682575226,-56.3669929504,50,55.1815872192,60.2320785522,55.4082374573,73.8980331421,-38.3117752075,42.7628593445,67.9778213501,33.5234375,4.1316218376,54.6715431213,40.6544723511,7.0714278221,9.9105377197,10.7627191544
1.49743294103607E+018,47.7843475342,-22.3089981079,-56.3669929504,50,55.1815872192,61.0947227478,55.4082374573,73.8980331421,-38.3117752075,42.7628593445,67.9778213501,33.5234375,4.1316218376,54.6715431213,40.6544723511,7.0714278221,9.9105377197,10.7627191544
1.49743294104532E+018,47.7843475342,-22.3089981079,-56.3669929504,50,55.1815872192,61.9573516846,55.4082374573,73.8980331421,-38.3117752075,42.7628593445,67.9778213501,33.5234375,4.1316218376,54.6715431213,40.6544723511,7.0714278221,9.9105377197,10.7627191544
1.49743294105466E+018,47.7843475342,-21.7497310638,-54.0809898376,50,55.1815872192,61.9573516846,55.4082374573,73.8980331421,-38.3117752075,39.8599967957,67.9778213501,33.5234375,4.1316218376,54.6715431213,40.6544723511,7.0714278221,9.9105377197,10.7627191544
1.49743294106402E+018,47.7843475342,-21.7497310638,-54.0809898376,50,55.1815872192,62.8199958801,55.4082374573,75.5308914185,-38.3117752075,39.8599967957,67.9778213501,33.5234375,4.1316218376,54.6715431213,41.0674819946,6.3457121849,9.9105377197,10.7627191544
1.49743294107327E+018,47.7843475342,-21.1904640198,-54.0809898376,50,55.1815872192,62.8199958801,55.4082374573,75.5308914185,-38.3117752075,39.8599967957,67.9778213501,33.5234375,4.1316218376,54.6715431213,41.0674819946,6.3457121849,9.9105377197,10.7627191544
1.49743294108274E+018,46.9008712769,-20.6311950684,-54.0809898376,50,55.1815872192,62.8199958801,55.4082374573,75.5308914185,-38.3117752075,39.8599967957,67.9778213501,33.5234375,4.1316218376,54.6715431213,41.0674819946,6.3457121849,9.9105377197,10.7627191544
1.4974329410921E+018,46.9008712769,-20.0719299316,-54.0809898376,50,55.1815872192,62.8199958801,55.4082374573,75.5308914185,-32.3352890015,39.8599967957,67.9778213501,33.5234375,4.1316218376,54.6715431213,41.893497467,6.3457121849,9.1458034515,10.7627191544
1.49743294110151E+018,46.9008712769,-19.5126609802,-58.6529808044,50,55.1815872192,62.8199958801,55.4082374573,75.5308914185,-32.3352890015,39.8599967957,68.8090820312,33.5234375,3.0683717728,54.6715431213,41.893497467,6.3457121849,9.1458034515,11.1572828293
1.49743294111074E+018,46.9008712769,-18.9533958435,-58.6529808044,50,55.1815872192,62.8199958801,55.4082374573,75.5308914185,-32.3352890015,39.8599967957,68.8090820312,33.5234375,3.0683717728,54.6715431213,41.893497467,6.3457121849,9.1458034515,11.1572828293
1.49743294112007E+018,46.9008712769,-18.3941268921,-60.9389877319,50,54.2762374878,62.8199958801,52.7188224792,75.5308914185,-32.3352890015,39.8599967957,68.8090820312,33.5234375,3.0683717728,54.6715431213,42.3065032959,7.7971439362,9.1458034515,11.1572828293
1.49743294112934E+018,46.9008712769,-17.2756004333,-63.2249908447,50,54.2762374878,62.8199958801,52.7188224792,75.5308914185,-26.358833313,37.3199958801,68.8090820312,33.5234375,3.0683717728,54.6715431213,42.7195129395,7.7971439362,9.1458034515,11.1572828293
1.4974329411386E+018,46.9008712769,-17.2756004333,-65.5109939575,50,54.2762374878,61.0947227478,52.7188224792,75.5308914185,-26.358833313,37.3199958801,68.8090820312,34.3171882629,3.0683717728,54.6715431213,42.7195129395,8.5228595734,9.1458034515,11.1572828293
1.49743294114786E+018,46.9008712769,-16.2968826294,-67.2254867554,50,54.2762374878,60.2320785522,52.7188224792,75.5308914185,-26.358833313,37.3199958801,68.8090820312,34.3171882629,3.0683717728,53.2647705078,42.7195129395,9.2485704422,9.1458034515,11.1572828293
1.49743294115712E+018,46.9008712769,-15.7376146317,-69.5114974976,50,54.2762374878,60.2320785522,52.7188224792,75.5308914185,-23.37059021,35.8685760498,68.8090820312,34.3171882629,2.0051136017,53.2647705078,42.7195129395,9.9742860794,9.1458034515,11.1572828293
1.49743294116648E+018,47.7843475342,-15.1783466339,-69.5114974976,50,54.2762374878,60.2320785522,52.7188224792,75.5308914185,-23.37059021,35.8685760498,68.8090820312,34.3171882629,2.0051136017,53.2647705078,42.7195129395,10.7000017166,9.1458034515,11.1572828293
1.49743294117584E+018,47.7843475342,-14.6190881729,-71.7974777222,50,54.2762374878,60.2320785522,52.7188224792,75.5308914185,-20.3823471069,35.8685760498,68.8090820312,34.3171882629,2.0051136017,53.2647705078,43.5455284119,11.4257173538,9.1458034515,11.1572828293
1.49743294118525E+018,47.7843475342,-14.0598211288,-74.0834884644,50,53.370891571,58.5067901611,52.7188224792,75.5308914185,-17.3941268921,35.8685760498,68.8090820312,35.9046859741,-0.1214027256,53.2647705078,43.8552856445,12.1514282227,9.1458034515,11.1572828293
1.49743294119461E+018,49.5513076782,-13.5005531311,-76.3694915771,50,53.370891571,57.6441497803,50.0294036865,75.5308914185,-17.3941268921,35.8685760498,68.8090820312,36.6984367371,-0.1214027256,51.8579978943,45.0943069458,12.1514282227,9.1458034515,11.1572828293
1.49743294120395E+018,49.5513076782,-13.5005531311,-76.3694915771,50,53.370891571,57.6441497803,50.0294036865,75.5308914185,-14.4058914185,32.965713501,68.8090820312,36.6984367371,-0.9188423753,49.9236946106,46.3333358765,11.4257173538,8.3810825348,11.1572828293
1.49743294121318E+018,50.4347839355,-12.941286087,-78.6554794312,50,53.370891571,56.1345329285,50.0294036865,75.5308914185,-11.4176483154,32.965713501,68.8090820312,36.6984367371,-0.9188423753,49.2203063965,47.1593475342,10.7000017166,8.3810825348,11.1572828293
1.49743294122241E+018,51.3182601929,-12.941286087,-78.6554794312,50,53.370891571,55.2718887329,50.0294036865,75.5308914185,-9.1764755249,32.965713501,68.8090820312,36.6984367371,-1.9821004868,48.5169219971,47.5723571777,10.7000017166,8.3810825348,11.5518455505
1.4974329412317E+018,51.3182601929,-12.382019043,-78.6554794312,50,52.4655418396,54.4092445374,50.0294036865,75.5308914185,-11.4176483154,32.965713501,69.6403579712,36.6984367371,-1.9821004868,47.813533783,47.5723571777,9.9742860794,8.3810825348,11.5518455505
1.49743294124089E+018,52.2017440796,-11.8227519989,-78.6554794312,50,52.4655418396,53.5466041565,47.3399887085,75.5308914185,-9.1764755249,32.965713501,69.6403579712,36.6984367371,-1.9821004868,47.1101608276,47.9853668213,10.7000017166,8.3810825348,11.5518455505
1.49743294125021E+018,52.2017440796,-11.2634849548,-78.6554794312,50,52.4655418396,52.6839599609,47.3399887085,75.5308914185,-6.1882362366,32.965713501,69.6403579712,36.6984367371,-1.9821004868,46.4067726135,47.9853668213,9.9742860794,8.3810825348,11.5518455505
1.49743294125957E+018,52.2017440796,-11.2634849548,-83.2274856567,50,52.4655418396,51.8213157654,47.3399887085,75.5308914185,-3.2000160217,32.965713501,69.6403579712,36.6984367371,-1.9821004868,45,48.3983726501,9.9742860794,8.3810825348,11.5518455505
1.49743294126901E+018,52.2017440796,-10.7042255402,-83.2274856567,50,52.4655418396,50.0960426331,47.3399887085,73.8980331421,-3.2000160217,32.965713501,69.6403579712,36.6984367371,-4.1086087227,44.2966156006,48.8113822937,9.9742860794,9.1458034515,11.5518455505
1.49743294127838E+018,52.2017440796,-10.7042255402,-83.2274856567,50,52.4655418396,49.2333984375,42.633518219,73.8980331421,-0.2117767334,30.0628604889,67.9778213501,34.3171882629,-4.1086087227,43.5932350159,49.2243919373,9.9742860794,9.1458034515,11.1572828293
1.49743294128759E+018,53.9686889648,-11.2634849548,-85.5134887695,50,51.7865257263,47.5081138611,42.633518219,73.0816116333,2.7764663696,30.0628604889,67.9778213501,35.1109390259,-4.1086087227,42.8898468018,49.2243919373,9.9742860794,9.1458034515,11.1572828293
1.49743294129685E+018,55.7356491089,-11.2634849548,-87.7994766235,50,51.7865257263,46.6454696655,42.633518219,72.2651824951,2.7764663696,30.0628604889,67.1465454102,35.1109390259,-5.1718668938,42.1864624023,49.6373977661,9.9742860794,9.1458034515,11.1572828293
1.49743294130609E+018,57.2817459106,-11.2634849548,-87.7994766235,50,51.7865257263,45.78282547,42.633518219,71.4487533569,5.764705658,30.0628604889,66.3152770996,35.1109390259,-5.1718668938,41.4830780029,49.6373977661,8.5228595734,9.1458034515,11.1572828293
1.49743294131537E+018,58.165222168,-11.2634849548,-85.5134887695,50,51.7865257263,44.0575523376,42.633518219,70.6323242188,8.7529258728,30.0628604889,65.4840011597,35.1109390259,-5.1718668938,40.7796936035,50.0504074097,7.7971439362,9.9105377197,11.1572828293
1.49743294132456E+018,59.0486907959,-11.2634849548,-83.2274856567,50,51.7865257263,43.1949081421,42.633518219,69.2035675049,11.7411689758,30.0628604889,64.6527252197,35.1109390259,-5.1718668938,40.0763092041,50.0504074097,7.0714278221,9.9105377197,11.1572828293
1.49743294133385E+018,58.165222168,-11.2634849548,-78.6554794312,50,49.9758453369,42.5479240417,42.633518219,68.3871459961,8.7529258728,30.0628604889,63.8214492798,35.1109390259,-5.1718668938,39.5487709045,50.0504074097,6.3457121849,9.9105377197,11.1572828293
1.4974329413431E+018,57.2817459106,-12.382019043,-74.0834884644,50,49.9758453369,42.5479240417,42.633518219,66.7542877197,8.7529258728,30.0628604889,62.9901771545,33.5234375,-5.1718668938,39.5487709045,50.0504074097,5.8014278412,9.9105377197,11.1572828293
1.49743294135234E+018,55.7356491089,-12.941286087,-67.2254867554,50,49.9758453369,41.6852798462,39.9441223145,65.9378585815,8.7529258728,30.0628604889,62.1589012146,33.5234375,-5.1718668938,38.8453865051,50.0504074097,4.350001812,9.9105377197,11.5518455505
1.49743294136152E+018,52.2017440796,-13.5005531311,-60.9389877319,50,49.9758453369,40.8226394653,39.9441223145,65.1214294434,8.7529258728,30.0628604889,61.3276405334,32.7296905518,-5.1718668938,38.8453865051,50.0504074097,3.6242859364,9.9105377197,11.5518455505
1.49743294137081E+018,47.7843475342,-14.0598211288,-54.0809898376,50,49.9758453369,40.8226394653,39.9441223145,63.4885673523,8.7529258728,30.0628604889,60.4963645935,31.9359378815,-5.1718668938,38.8453865051,50.7731704712,2.1728596687,9.1458034515,11.5518455505
1.49743294138003E+018,43.5878295898,-14.0598211288,-47.2229919434,50,49.9758453369,39.9599952698,39.9441223145,62.6721496582,8.7529258728,30.0628604889,59.6650924683,31.3406276703,-5.1718668938,38.8453865051,50.7731704712,1.4471439123,9.1458034515,11.5518455505
1.49743294138925E+018,40.0539169312,-14.0598211288,-42.6509857178,50,49.9758453369,39.0973625183,39.9441223145,61.85572052,8.7529258728,30.0628604889,58.8338165283,31.3406276703,-5.1718668938,38.8453865051,50.7731704712,0.7214280963,9.1458034515,11.5518455505
1.49743294139859E+018,37.4034805298,-14.0598211288,-40.3649978638,50,49.9758453369,38.2347221375,39.9441223145,61.0392875671,8.7529258728,28.6114292145,57.1712684631,31.3406276703,-5.1718668938,37.4386138916,50.7731704712,-0.0042877458,9.1458034515,11.5518455505
1.49743294140774E+018,35.6365203857,-14.0598211288,-38.078994751,50,49.9758453369,37.3720779419,39.9441223145,60.222858429,8.7529258728,28.6114292145,56.5478210449,31.3406276703,-5.1718668938,37.4386138916,50.7731704712,-0.0042877458,9.1458034515,11.5518455505
1.49743294141699E+018,32.9860916138,-14.0598211288,-35.7929878235,50,49.9758453369,36.5094337463,39.9441223145,59.4064292908,5.764705658,28.6114292145,55.7165489197,31.3406276703,-5.1718668938,37.4386138916,50.7731704712,-0.7299981713,9.1458034515,11.5518455505
1.49743294142628E+018,32.1026077271,-14.0598211288,-33.5069847107,50,49.0704956055,35.6467895508,39.9441223145,58.5900001526,5.764705658,28.6114292145,54.8852729797,31.3406276703,-5.1718668938,37.4386138916,50.7731704712,-0.7299981713,7.6163520813,11.5518455505
1.49743294143553E+018,30.3356552124,-14.0598211288,-31.2209968567,50,49.0704956055,35.6467895508,39.9441223145,57.7735671997,5.764705658,28.6114292145,54.0539970398,31.3406276703,-5.1718668938,37.4386138916,50.7731704712,-0.7299981713,7.6163520813,11.5518455505
1.49743294144476E+018,29.6730422974,-14.0598211288,-29.5064849854,50,49.0704956055,34.7841529846,39.9441223145,56.9571495056,5.764705658,28.6114292145,53.2227249146,31.3406276703,-3.04535079,37.4386138916,50.0504074097,-0.7299981713,7.6163520813,11.5518455505
1.49743294145397E+018,29.6730422974,-14.0598211288,-24.9344940186,50,49.0704956055,33.9215126038,39.9441223145,56.3448257446,5.764705658,27.1599979401,52.3914489746,31.3406276703,-3.04535079,37.4386138916,49.6373977661,-0.7299981713,8.3810825348,11.9464082718
1.49743294146324E+018,28.78956604,-14.0598211288,-22.6484889984,50,47.2597999573,33.0588684082,39.9441223145,55.5283927917,5.764705658,27.1599979401,51.5601768494,31.3406276703,-3.04535079,37.4386138916,49.2243919373,-0.7299981713,8.3810825348,11.9464082718
1.4974329414724E+018,29.6730422974,-14.0598211288,-18.0764980316,50,47.2597999573,32.1962242126,39.9441223145,54.7119636536,5.764705658,27.1599979401,50.7289123535,31.3406276703,-3.04535079,37.4386138916,48.8113822937,-0.7299981713,9.1458034515,11.9464082718
1.49743294148166E+018,29.6730422974,-14.0598211288,-15.7904930115,50,46.3544502258,32.1962242126,39.9441223145,53.8955345154,5.764705658,27.1599979401,50.7289123535,31.3406276703,-3.04535079,37.4386138916,48.3983726501,-0.7299981713,9.1458034515,11.9464082718
1.49743294149092E+018,29.6730422974,-14.0598211288,-11.2184839249,50,46.3544502258,31.3335876465,39.9441223145,53.0791053772,5.764705658,27.1599979401,49.8976402283,29.7531242371,-3.04535079,37.4386138916,48.3983726501,0.7214280963,9.1458034515,11.9464082718
1.49743294150022E+018,29.6730422974,-14.0598211288,-11.2184839249,50,46.3544502258,30.4709453583,39.9441223145,52.2626838684,5.764705658,27.1599979401,49.0663642883,29.7531242371,-3.04535079,36.7352333069,47.9853668213,0.7214280963,9.1458034515,11.9464082718
1.49743294150947E+018,29.6730422974,-14.0598211288,-8.9324970245,50,46.3544502258,30.4709453583,39.9441223145,51.4462547302,5.764705658,27.1599979401,48.2350883484,29.7531242371,-3.04535079,36.7352333069,47.5723571777,0.7214280963,9.1458034515,11.9464082718
1.4974329415188E+018,29.6730422974,-14.0598211288,-6.6464924812,50,46.3544502258,30.4709453583,39.9441223145,50.629825592,5.764705658,27.1599979401,48.2350883484,29.7531242371,-1.9821004868,36.7352333069,47.1593475342,1.4471439123,9.1458034515,11.9464082718
1.49743294152807E+018,29.6730422974,-12.941286087,-6.6464924812,50,46.3544502258,30.4709453583,39.9441223145,49.8133964539,5.764705658,27.1599979401,47.4038162231,29.7531242371,-1.9821004868,36.7352333069,47.1593475342,1.4471439123,9.1458034515,11.9464082718
1.49743294153745E+018,29.6730422974,-12.941286087,-4.3604879379,50,46.3544502258,30.4709453583,39.9441223145,48.996963501,5.764705658,25.7085762024,46.5725402832,29.7531242371,-1.9821004868,36.7352333069,46.7463417053,1.4471439123,10.6752700806,11.9464082718
1.49743294154678E+018,29.6730422974,-12.941286087,-4.3604879379,50,46.3544502258,28.9613227844,37.2547073364,48.1805343628,5.764705658,25.7085762024,45.741268158,29.7531242371,-1.9821004868,36.7352333069,46.7463417053,1.4471439123,10.6752700806,12.340970993
1.49743294155598E+018,29.6730422974,-12.941286087,-4.3604879379,50,46.3544502258,28.9613227844,37.2547073364,47.3641052246,5.764705658,25.7085762024,45.741268158,29.7531242371,-1.9821004868,36.7352333069,46.7463417053,1.4471439123,10.6752700806,12.340970993
1.49743294156529E+018,29.6730422974,-12.941286087,-4.3604879379,50,45.4491043091,28.0986785889,37.2547073364,46.5476875305,5.764705658,25.7085762024,44.9100036621,28.1656265259,-1.9821004868,36.7352333069,46.7463417053,1.4471439123,10.6752700806,12.340970993
1.49743294157447E+018,29.6730422974,-12.941286087,-4.3604879379,50,45.4491043091,28.0986785889,37.2547073364,45.7312545776,5.764705658,25.7085762024,44.0787315369,28.1656265259,-0.9188423753,36.7352333069,46.7463417053,1.4471439123,10.6752700806,12.340970993
1.49743294158384E+018,29.6730422974,-12.941286087,-4.3604879379,50,45.4491043091,28.0986785889,37.2547073364,44.9148254395,5.764705658,25.7085762024,44.0787315369,27.3718757629,-0.9188423753,36.7352333069,46.7463417053,1.4471439123,10.6752700806,12.340970993
1.49743294159319E+018,29.6730422974,-12.941286087,-4.3604879379,50,45.4491043091,28.0986785889,37.2547073364,44.0983963013,5.764705658,25.7085762024,43.4552726746,26.5781230927,-0.9188423753,36.7352333069,46.7463417053,1.4471439123,10.6752700806,12.340970993
1.49743294160272E+018,29.6730422974,-12.941286087,-4.3604879379,50,45.4491043091,28.0986785889,37.2547073364,43.4860687256,5.764705658,27.1599979401,42.6239967346,26.5781230927,-0.9188423753,36.7352333069,46.7463417053,1.4471439123,10.6752700806,12.735534668
1.49743294161207E+018,29.6730422974,-12.941286087,-4.3604879379,50,45.4491043091,26.3733997345,37.2547073364,42.6696395874,5.764705658,27.1599979401,41.7927246094,26.5781230927,-0.9188423753,35.3284606934,46.7463417053,2.1728596687,12.2047348022,12.735534668
1.49743294162139E+018,30.3356552124,-12.941286087,-4.3604879379,50,44.5437545776,26.3733997345,37.2547073364,41.0367927551,2.7764663696,27.1599979401,41.7927246094,26.5781230927,-0.9188423753,35.3284606934,46.7463417053,2.1728596687,12.2047348022,12.735534668
1.49743294163069E+018,30.3356552124,-13.5005531311,-2.0745007992,50,44.5437545776,25.5107555389,37.2547073364,40.2203598022,2.7764663696,27.1599979401,40.9614486694,26.5781230927,-0.9188423753,35.3284606934,46.7463417053,2.1728596687,12.2047348022,12.735534668
1.49743294163988E+018,30.3356552124,-13.5005531311,-2.0745007992,50,44.5437545776,25.5107555389,37.2547073364,40.2203598022,2.7764663696,27.1599979401,40.1301879883,26.5781230927,-0.9188423753,34.6250801086,46.7463417053,2.1728596687,12.9694671631,12.735534668
1.49743294164914E+018,30.3356552124,-13.5005531311,-2.0745007992,50,44.5437545776,25.5107555389,37.2547073364,39.4039306641,2.7764663696,27.1599979401,40.1301879883,26.5781230927,-0.9188423753,34.6250801086,46.7463417053,2.1728596687,12.9694671631,12.735534668
1.49743294165842E+018,30.3356552124,-13.5005531311,-2.0745007992,50,44.5437545776,25.5107555389,37.2547073364,39.4039306641,2.7764663696,25.7085762024,39.2989120483,26.5781230927,-0.9188423753,34.6250801086,46.7463417053,2.1728596687,12.9694671631,12.735534668
1.49743294166775E+018,30.3356552124,-13.5005531311,-2.0745007992,50,42.7330703735,25.5107555389,37.2547073364,38.5875015259,8.7529258728,25.7085762024,39.2989120483,26.5781230927,-0.9188423753,34.6250801086,46.7463417053,2.1728596687,12.9694671631,12.735534668
1.497432941677E+018,29.6730422974,-13.5005531311,-2.0745007992,50,42.7330703735,25.5107555389,37.2547073364,37.771068573,8.7529258728,25.7085762024,38.4676361084,26.5781230927,-0.9188423753,34.6250801086,46.7463417053,2.1728596687,12.9694671631,12.735534668
1.49743294168629E+018,29.6730422974,-14.6190881729,-2.0745007992,50,42.7330703735,25.5107555389,34.5652885437,37.771068573,5.764705658,25.7085762024,38.4676361084,26.5781230927,-0.9188423753,34.6250801086,46.7463417053,2.1728596687,12.9694671631,12.735534668
1.49743294169554E+018,29.6730422974,-14.6190881729,-2.0745007992,50,42.7330703735,23.7854766846,34.5652885437,36.9546394348,8.7529258728,25.7085762024,37.6363639832,26.5781230927,-0.9188423753,34.6250801086,46.7463417053,2.1728596687,12.9694671631,12.735534668
1.4974329417049E+018,29.6730422974,-14.6190881729,-2.0745007992,50,42.7330703735,23.7854766846,34.5652885437,36.9546394348,8.7529258728,24.257144928,37.6363639832,26.5781230927,-0.9188423753,34.6250801086,46.7463417053,2.1728596687,13.7342014313,12.735534668
1.49743294171427E+018,27.9060897827,-14.6190881729,-2.0745007992,50,42.7330703735,23.7854766846,34.5652885437,36.1382102966,8.7529258728,19.9028606415,37.6363639832,26.5781230927,-0.9188423753,33.2183074951,46.7463417053,2.1728596687,13.7342014313,12.735534668
1.49743294172345E+018,27.022605896,-14.6190881729,-2.0745007992,50,42.7330703735,22.922832489,34.5652885437,36.1382102966,8.7529258728,14.4599981308,37.6363639832,26.5781230927,-0.9188423753,33.2183074951,46.7463417053,2.1728596687,13.7342014313,12.735534668
1.49743294173273E+018,24.372177124,-14.6190881729,-2.0745007992,50,42.7330703735,22.922832489,34.5652885437,36.1382102966,8.7529258728,10.1057138443,37.6363639832,30.5468769073,-0.9188423753,33.9216957092,46.7463417053,2.1728596687,13.7342014313,12.735534668
1.49743294174206E+018,21.7217407227,-14.6190881729,-2.0745007992,50,41.8277244568,22.922832489,29.1864757538,36.1382102966,8.7529258728,5.7514295578,37.6363639832,31.3406276703,-0.9188423753,33.9216957092,46.7463417053,0.7214280963,13.7342014313,12.735534668
1.49743294175134E+018,19.9547805786,-14.6190881729,-2.0745007992,50,41.8277244568,22.922832489,29.1864757538,36.1382102966,8.7529258728,4.2999978066,37.6363639832,31.9359378815,-0.9188423753,33.9216957092,47.5723571777,0.7214280963,13.7342014313,12.735534668
1.49743294176055E+018,18.187828064,-14.6190881729,-2.0745007992,50,41.8277244568,22.922832489,29.1864757538,36.1382102966,8.7529258728,2.8485662937,37.6363639832,31.9359378815,-0.9188423753,33.9216957092,47.9853668213,0.7214280963,13.7342014313,12.735534668
1.49743294176991E+018,17.3043441772,-14.6190881729,2.497508049,50,41.8277244568,22.922832489,29.1864757538,36.1382102966,8.7529258728,1.3971453905,37.6363639832,31.9359378815,-0.9188423753,33.9216957092,47.9853668213,-0.0042877458,13.7342014313,12.735534668
1.49743294177921E+018,17.3043441772,-14.6190881729,2.497508049,50,41.8277244568,22.922832489,29.1864757538,35.3217926025,8.7529258728,1.3971453905,37.6363639832,31.9359378815,-1.9821004868,33.9216957092,47.9853668213,-0.0042877458,13.7342014313,12.735534668
1.49743294178852E+018,16.4208679199,-14.6190881729,2.497508049,50,41.8277244568,22.922832489,29.1864757538,35.3217926025,8.7529258728,1.3971453905,35.9738197327,31.9359378815,-1.9821004868,33.9216957092,47.9853668213,-0.7299981713,13.7342014313,12.340970993
1.49743294179786E+018,15.7582626343,-15.7376146317,2.497508049,50,41.8277244568,22.922832489,29.1864757538,35.3217926025,8.7529258728,1.3971453905,35.9738197327,31.9359378815,-1.9821004868,33.9216957092,47.9853668213,-0.7299981713,13.7342014313,12.340970993
1.49743294180718E+018,15.7582626343,-16.2968826294,2.497508049,50,42.7330703735,22.922832489,29.1864757538,35.3217926025,8.7529258728,1.3971453905,35.9738197327,31.9359378815,-1.9821004868,33.9216957092,48.8113822937,-0.7299981713,12.9694671631,12.340970993
1.4974329418165E+018,15.7582626343,-16.8561477661,2.497508049,50,42.7330703735,24.6481132507,29.1864757538,35.3217926025,8.7529258728,4.2999978066,35.1425476074,29.7531242371,-1.9821004868,33.9216957092,48.8113822937,-0.7299981713,12.9694671631,12.340970993
1.49743294182567E+018,15.7582626343,-16.8561477661,2.497508049,50,42.7330703735,24.6481132507,31.8758926392,35.3217926025,8.7529258728,5.7514295578,35.1425476074,28.1656265259,-1.9821004868,33.9216957092,49.2243919373,-0.7299981713,12.9694671631,12.340970993
1.49743294183498E+018,15.7582626343,-17.2756004333,2.497508049,50,42.7330703735,25.5107555389,31.8758926392,35.3217926025,8.7529258728,8.6542816162,34.3112716675,27.3718757629,-0.1214027256,35.3284606934,48.8113822937,-0.7299981713,12.9694671631,12.340970993
1.49743294184423E+018,15.7582626343,-17.2756004333,2.497508049,50,42.7330703735,25.5107555389,31.8758926392,35.3217926025,8.7529258728,11.5571451187,34.3112716675,25.7843723297,-0.1214027256,35.3284606934,48.3983726501,-0.7299981713,12.9694671631,12.340970993
1.49743294185357E+018,17.3043441772,-17.2756004333,2.497508049,50,42.7330703735,25.5107555389,37.2547073364,35.3217926025,14.7294082642,14.4599981308,34.3112716675,24.9906272888,-0.1214027256,35.3284606934,48.3983726501,-0.7299981713,12.9694671631,12.340970993
1.4974329418628E+018,18.187828064,-17.2756004333,-2.0745007992,50,44.5437545776,25.5107555389,37.2547073364,36.9546394348,14.7294082642,15.5485658646,34.3112716675,24.9906272888,-0.1214027256,35.3284606934,47.9853668213,-0.7299981713,12.9694671631,12.340970993
1.49743294187203E+018,19.9547805786,-17.2756004333,-4.3604879379,50,45.4491043091,25.5107555389,37.2547073364,36.9546394348,14.7294082642,16.9999980927,34.3112716675,25.7843723297,-0.1214027256,35.3284606934,47.9853668213,-0.7299981713,12.9694671631,12.340970993
1.49743294188135E+018,20.8382644653,-17.2756004333,-4.3604879379,50,45.4491043091,25.5107555389,39.9441223145,37.771068573,14.7294082642,16.9999980927,35.9738197327,26.5781230927,-0.1214027256,35.3284606934,47.9853668213,-0.7299981713,12.9694671631,12.340970993
1.49743294189063E+018,20.8382644653,-17.2756004333,-6.6464924812,50,45.4491043091,25.5107555389,39.9441223145,37.771068573,14.7294082642,18.4514293671,35.9738197327,26.5781230927,-0.1214027256,35.3284606934,47.9853668213,0.7214280963,12.9694671631,12.340970993
1.49743294189987E+018,21.7217407227,-17.2756004333,-8.9324970245,50,45.4491043091,25.5107555389,39.9441223145,38.5875015259,14.7294082642,18.4514293671,36.8050880432,26.5781230927,-0.1214027256,35.3284606934,47.9853668213,0.7214280963,12.9694671631,12.340970993
1.49743294190916E+018,22.6052246094,-17.2756004333,-8.9324970245,50,45.4491043091,25.5107555389,39.9441223145,38.5875015259,14.7294082642,19.9028606415,36.8050880432,26.5781230927,-0.1214027256,36.0318489075,47.9853668213,1.4471439123,12.9694671631,12.340970993
1.49743294191849E+018,23.4886932373,-16.8561477661,-11.2184839249,50,45.4491043091,25.5107555389,39.9441223145,39.4039306641,14.7294082642,19.9028606415,37.6363639832,26.5781230927,-0.1214027256,36.0318489075,47.9853668213,1.4471439123,12.9694671631,12.340970993
1.4974329419278E+018,23.4886932373,-16.8561477661,-11.2184839249,50,47.2597999573,25.5107555389,39.9441223145,39.4039306641,14.7294082642,19.9028606415,37.6363639832,26.5781230927,-0.1214027256,36.0318489075,48.3983726501,1.4471439123,12.9694671631,12.340970993
1.4974329419371E+018,24.372177124,-16.8561477661,-13.504488945,50,46.3544502258,25.5107555389,39.9441223145,40.2203598022,14.7294082642,19.9028606415,37.6363639832,26.5781230927,-0.1214027256,36.0318489075,48.3983726501,1.4471439123,12.9694671631,12.340970993
1.49743294194641E+018,24.372177124,-16.8561477661,-13.504488945,50,47.2597999573,25.5107555389,45.3229370117,41.0367927551,8.7529258728,19.9028606415,37.6363639832,26.5781230927,0.9418554306,36.0318489075,48.3983726501,1.4471439123,12.9694671631,12.735534668
1.49743294195572E+018,24.372177124,-16.8561477661,-13.504488945,50,47.2597999573,25.5107555389,45.3229370117,41.0367927551,8.7529258728,19.9028606415,37.6363639832,25.7843723297,0.9418554306,36.0318489075,49.2243919373,1.4471439123,12.9694671631,12.735534668
1.49743294196493E+018,24.372177124,-16.8561477661,-13.504488945,50,47.2597999573,25.5107555389,45.3229370117,41.0367927551,5.764705658,19.9028606415,37.6363639832,25.7843723297,0.9418554306,36.0318489075,49.2243919373,1.4471439123,12.9694671631,12.735534668
1.49743294197412E+018,24.372177124,-16.8561477661,-13.504488945,50,47.2597999573,25.5107555389,45.3229370117,41.0367927551,5.764705658,21.3542823792,37.6363639832,25.7843723297,0.9418554306,36.0318489075,49.2243919373,1.4471439123,12.9694671631,12.735534668
1.49743294198334E+018,24.372177124,-16.8561477661,-13.504488945,50,47.2597999573,25.5107555389,45.3229370117,41.0367927551,2.7764663696,21.3542823792,37.6363639832,25.7843723297,0.9418554306,36.0318489075,49.6373977661,1.4471439123,12.9694671631,12.735534668
1.49743294199267E+018,26.1391296387,-16.8561477661,-13.504488945,50,47.2597999573,25.5107555389,45.3229370117,41.0367927551,2.7764663696,21.3542823792,39.2989120483,25.7843723297,0.9418554306,36.0318489075,49.6373977661,-0.0042877458,12.9694671631,12.735534668
1.497432942002E+018,26.1391296387,-16.8561477661,-13.504488945,50,47.2597999573,25.5107555389,45.3229370117,41.0367927551,2.7764663696,21.3542823792,39.2989120483,25.7843723297,0.9418554306,36.0318489075,49.6373977661,-0.0042877458,12.9694671631,12.735534668
1.49743294201128E+018,26.1391296387,-16.8561477661,-13.504488945,50,47.2597999573,25.5107555389,45.3229370117,41.0367927551,2.7764663696,21.3542823792,39.2989120483,25.7843723297,0.9418554306,36.0318489075,49.6373977661,-0.0042877458,12.9694671631,12.735534668
1.4974329420205E+018,27.022605896,-16.8561477661,-13.504488945,50,47.2597999573,25.5107555389,45.3229370117,41.0367927551,2.7764663696,21.3542823792,40.1301879883,25.7843723297,0.9418554306,36.0318489075,49.6373977661,0.7214280963,12.2047348022,12.735534668
1.49743294202987E+018,27.022605896,-16.8561477661,-13.504488945,50,47.2597999573,27.2360363007,45.3229370117,41.8532218933,2.7764663696,21.3542823792,40.1301879883,25.7843723297,0.9418554306,36.0318489075,49.6373977661,0.7214280963,12.2047348022,12.735534668
1.49743294203913E+018,27.9060897827,-17.2756004333,-15.7904930115,50,47.2597999573,27.2360363007,45.3229370117,41.8532218933,2.7764663696,21.3542823792,40.9614486694,25.7843723297,0.9418554306,36.0318489075,49.6373977661,0.7214280963,12.2047348022,12.735534668
1.49743294204835E+018,27.9060897827,-17.2756004333,-15.7904930115,50,47.2597999573,27.2360363007,45.3229370117,41.8532218933,2.7764663696,21.3542823792,40.9614486694,25.7843723297,0.9418554306,36.0318489075,49.6373977661,0.7214280963,12.2047348022,12.735534668
1.49743294205759E+018,27.9060897827,-17.2756004333,-15.7904930115,50,47.2597999573,27.2360363007,45.3229370117,41.8532218933,2.7764663696,21.3542823792,41.7927246094,25.7843723297,0.9418554306,36.0318489075,49.6373977661,0.7214280963,12.2047348022,12.735534668
1.49743294206689E+018,27.9060897827,-17.2756004333,-15.7904930115,50,47.2597999573,27.2360363007,45.3229370117,41.8532218933,2.7764663696,21.3542823792,41.7927246094,27.3718757629,-0.1214027256,36.0318489075,49.6373977661,0.7214280963,12.2047348022,12.735534668
1.49743294207619E+018,29.6730422974,-17.2756004333,-15.7904930115,50,47.2597999573,27.2360363007,45.3229370117,41.8532218933,2.7764663696,21.3542823792,42.6239967346,27.3718757629,-0.1214027256,36.0318489075,49.6373977661,0.7214280963,12.2047348022,12.340970993
1.49743294208553E+018,30.3356552124,-17.2756004333,-15.7904930115,50,45.4491043091,27.2360363007,45.3229370117,41.8532218933,2.7764663696,21.3542823792,42.6239967346,27.3718757629,-0.1214027256,36.0318489075,49.6373977661,0.7214280963,12.2047348022,12.340970993
1.49743294209487E+018,31.2191314697,-17.2756004333,-20.3624839783,50,45.4491043091,25.5107555389,45.3229370117,41.8532218933,2.7764663696,21.3542823792,42.6239967346,27.3718757629,-0.1214027256,36.0318489075,49.2243919373,0.7214280963,12.2047348022,12.340970993
1.49743294210418E+018,32.1026077271,-17.2756004333,-20.3624839783,50,45.4491043091,25.5107555389,45.3229370117,41.8532218933,2.7764663696,21.3542823792,42.6239967346,27.3718757629,-0.1214027256,36.0318489075,49.2243919373,0.7214280963,12.2047348022,12.340970993
1.49743294211353E+018,32.1026077271,-17.2756004333,-20.3624839783,50,44.5437545776,24.6481132507,42.633518219,41.8532218933,2.7764663696,22.8057136536,42.6239967346,27.3718757629,-0.1214027256,36.0318489075,49.2243919373,2.1728596687,12.2047348022,12.340970993
1.49743294212286E+018,32.9860916138,-17.2756004333,-22.6484889984,50,44.5437545776,23.7854766846,42.633518219,41.8532218933,8.7529258728,22.8057136536,42.6239967346,27.3718757629,-0.1214027256,36.0318489075,49.2243919373,2.1728596687,12.2047348022,12.340970993
1.49743294213215E+018,32.9860916138,-17.2756004333,-22.6484889984,50,44.5437545776,23.7854766846,42.633518219,41.8532218933,8.7529258728,22.8057136536,42.6239967346,25.7843723297,-0.1214027256,34.6250801086,49.2243919373,2.1728596687,12.2047348022,12.340970993
1.49743294214135E+018,33.8695678711,-17.8348693848,-22.6484889984,50,44.5437545776,22.922832489,42.633518219,41.8532218933,8.7529258728,22.8057136536,42.6239967346,25.7843723297,-0.1214027256,35.3284606934,49.2243919373,2.1728596687,12.2047348022,11.9464082718
1.49743294215062E+018,34.7530441284,-17.8348693848,-22.6484889984,50,44.5437545776,22.922832489,42.633518219,41.8532218933,8.7529258728,22.8057136536,42.6239967346,24.9906272888,-0.1214027256,35.3284606934,50.0504074097,2.1728596687,12.2047348022,11.9464082718
1.49743294215982E+018,35.6365203857,-17.8348693848,-22.6484889984,50,44.5437545776,22.922832489,42.633518219,41.0367927551,8.7529258728,22.8057136536,42.6239967346,24.9906272888,-0.1214027256,34.6250801086,50.0504074097,2.1728596687,12.2047348022,11.9464082718
1.49743294216904E+018,36.5200042725,-17.8348693848,-22.6484889984,50,44.5437545776,22.922832489,47.3399887085,41.0367927551,8.7529258728,22.8057136536,42.6239967346,23.4031238556,-0.1214027256,34.6250801086,50.7731704712,3.6242859364,12.2047348022,11.9464082718
1.49743294217829E+018,38.2869567871,-17.8348693848,-22.6484889984,50,44.5437545776,22.922832489,47.3399887085,41.0367927551,8.7529258728,22.8057136536,42.6239967346,22.6093769073,-0.1214027256,34.6250801086,51.1861801147,4.350001812,12.2047348022,11.9464082718
1.49743294218762E+018,40.0539169312,-17.8348693848,-27.2204971313,50,44.5437545776,22.922832489,50.0294036865,41.0367927551,8.7529258728,25.7085762024,42.6239967346,22.6093769073,-0.1214027256,34.6250801086,51.1861801147,4.350001812,12.2047348022,11.9464082718
1.49743294219696E+018,40.9373931885,-17.8348693848,-27.2204971313,50,44.5437545776,22.922832489,50.0294036865,41.0367927551,8.7529258728,25.7085762024,42.6239967346,22.6093769073,-0.1214027256,34.6250801086,51.5991859436,4.350001812,12.2047348022,11.9464082718
1.4974329422063E+018,41.8208694458,-17.8348693848,-29.5064849854,50,46.3544502258,22.0601902008,52.7188224792,41.0367927551,8.7529258728,28.6114292145,42.6239967346,22.6093769073,-0.1214027256,34.6250801086,52.0121955872,2.8985700607,12.2047348022,11.9464082718
1.4974329422157E+018,43.5878295898,-18.9533958435,-29.5064849854,50,46.3544502258,22.0601902008,52.7188224792,42.6696395874,8.7529258728,30.0628604889,44.0787315369,22.6093769073,-0.1214027256,33.2183074951,53.664226532,1.4471439123,13.7342014313,11.9464082718
1.49743294222495E+018,43.5878295898,-18.9533958435,-31.2209968567,50,46.3544502258,22.0601902008,52.7188224792,42.6696395874,2.7764663696,30.0628604889,44.9100036621,22.6093769073,-1.9821004868,31.8115406036,54.9032516479,0.7214280963,13.7342014313,11.9464082718
1.49743294223413E+018,44.2504348755,-18.9533958435,-33.5069847107,50,46.3544502258,20.3349094391,52.7188224792,43.4860687256,5.764705658,31.5142822266,44.9100036621,22.6093769073,-1.9821004868,30.4047698975,55.7292671204,-0.7299981713,14.498922348,11.9464082718
1.49743294224331E+018,44.2504348755,-19.5126609802,-33.5069847107,50,46.3544502258,20.3349094391,52.7188224792,43.4860687256,8.7529258728,31.5142822266,46.5725402832,22.6093769073,-3.04535079,29.7013835907,56.5552825928,-1.4557139874,14.498922348,11.9464082718
1.49743294225262E+018,44.2504348755,-19.5126609802,-33.5069847107,50,46.3544502258,20.3349094391,47.3399887085,44.0983963013,11.7411689758,30.0628604889,47.4038162231,24.9906272888,-3.04535079,28.4704608917,56.8650398254,-0.7299981713,14.498922348,11.9464082718
1.49743294226179E+018,44.2504348755,-19.5126609802,-33.5069847107,50,44.5437545776,20.3349094391,45.3229370117,45.7312545776,14.7294082642,28.6114292145,48.2350883484,26.5781230927,-3.04535079,27.7670783997,56.8650398254,-1.4557139874,14.498922348,11.9464082718
